{"type":"node","id":"HT","lat":51.69048,"lon":5.29362,"tags":{"name":"'s-Hertogenbosch","uic":"8400319","name_short":"Den Bosch","name_medium":"'s-Hertogenbosch","slug":"s-hertogenbosch","type":"knooppuntIntercitystation"},"category":"netherlands_all"}
{"type":"node","id":"HTO","lat":51.700553894043,"lon":5.3183331489563,"tags":{"name":"'s-Hertogenbosch Oost","uic":"8400320","name_short":"Dn Bosch O","name_medium":"'s-Hertogenb. O.","slug":"s-hertogenbosch-oost","type":"stoptreinstation"},"category":"netherlands_all"}
{"type":"node","id":"HDE","lat":52.4091682,"lon":5.893611,"tags":{"name":"'t Harde","uic":"8400388","name_short":"'t Harde","name_medium":"'t Harde","slug":"t-harde","type":"stoptreinstation"},"category":"netherlands_all"}
{"type":"node","id":"ATN","lat":51.921326524551,"lon":6.5786272287369,"tags":{"name":"Aalten","uic":"8400045","name_short":"Aalten","name_medium":"Aalten","slug":"aalten","type":"stoptreinstation"},"category":"netherlands_all"}
{"type":"node","id":"AC","lat":52.2785,"lon":4.977,"tags":{"name":"Abcoude","uic":"8400047","name_short":"Abcoude","name_medium":"Abcoude","slug":"abcoude","type":"stoptreinstation"},"category":"netherlands_all"}
{"type":"node","id":"AKM","lat":53.046390533447,"lon":5.843611240387,"tags":{"name":"Akkrum","uic":"8400049","name_short":"Akkrum","name_medium":"Akkrum","slug":"akkrum","type":"stoptreinstation"},"category":"netherlands_all"}
{"type":"node","id":"AMR","lat":52.63777923584,"lon":4.7397222518921,"tags":{"name":"Alkmaar","uic":"8400050","name_short":"Alkmaar","name_medium":"Alkmaar","slug":"alkmaar","type":"knooppuntIntercitystation"},"category":"netherlands_all"}
{"type":"node","id":"AMRN","lat":52.643890380859,"lon":4.7641668319702,"tags":{"name":"Alkmaar Noord","uic":"8400052","name_short":"Alkmaar N","name_medium":"Alkmaar Noord","slug":"alkmaar-noord","type":"stoptreinstation"},"category":"netherlands_all"}
{"type":"node","id":"AML","lat":52.358055114746,"lon":6.6538887023926,"tags":{"name":"Almelo","uic":"8400051","name_short":"Almelo","name_medium":"Almelo","slug":"almelo","type":"knooppuntIntercitystation"},"category":"netherlands_all"}
{"type":"node","id":"AMRI","lat":52.341945648193,"lon":6.6666665077209,"tags":{"name":"Almelo de Riet","uic":"8400520","name_short":"de Riet","name_medium":"de Riet","slug":"almelo-de-riet","type":"stoptreinstation"},"category":"netherlands_all"}
{"type":"node","id":"ALMB","lat":52.394165039062,"lon":5.2780556678772,"tags":{"name":"Almere Buiten","uic":"8400081","name_short":"Buiten","name_medium":"Buiten","slug":"almere-buiten","type":"stoptreinstation"},"category":"netherlands_all"}
{"type":"node","id":"ALM","lat":52.37503,"lon":5.21764,"tags":{"name":"Almere Centrum","uic":"8400080","name_short":"Almere C","name_medium":"Almere C.","slug":"almere-centrum","type":"knooppuntIntercitystation"},"category":"netherlands_all"}
{"type":"node","id":"ALMM","lat":52.367500305176,"lon":5.1902775764465,"tags":{"name":"Almere Muziekwijk","uic":"8400082","name_short":"Muziekwijk","name_medium":"Muziekwijk","slug":"almere-muziekwijk","type":"stoptreinstation"},"category":"netherlands_all"}
{"type":"node","id":"ALMO","lat":52.403331756592,"lon":5.3005557060242,"tags":{"name":"Almere Oostvaarders","uic":"8400226","name_short":"Oostvaard","name_medium":"Oostvaarders","slug":"almere-oostvaarders","type":"stoptreinstation"},"category":"netherlands_all"}
{"type":"node","id":"ALMP","lat":52.376667022705,"lon":5.244722366333,"tags":{"name":"Almere Parkwijk","uic":"8400104","name_short":"Parkwijk","name_medium":"Parkwijk","slug":"almere-parkwijk","type":"stoptreinstation"},"category":"netherlands_all"}
{"type":"node","id":"AMPO","lat":52.342778,"lon":5.151944,"tags":{"name":"Almere Poort","uic":"8400450","name_short":"Poort","name_medium":"Poort","slug":"almere-poort","type":"stoptreinstation"},"category":"netherlands_all"}
{"type":"node","id":"APN","lat":52.124443054199,"lon":4.6577777862549,"tags":{"name":"Alphen a/d Rijn","uic":"8400053","name_short":"Alphen","name_medium":"Alphen a/d Rijn","slug":"alphen-a-d-rijn","type":"knooppuntIntercitystation"},"category":"netherlands_all"}
{"type":"node","id":"AMF","lat":52.153888702393,"lon":5.3705554008484,"tags":{"name":"Amersfoort Centraal","uic":"8400055","name_short":"Amersfrt C","name_medium":"Amersfoort C.","slug":"amersfoort-centraal","type":"knooppuntIntercitystation"},"category":"netherlands_all"}
{"type":"node","id":"AMFS","lat":52.174822137451,"lon":5.4038887023926,"tags":{"name":"Amersfoort Schothorst","uic":"8400054","name_short":"Schothorst","name_medium":"Schothorst","slug":"amersfoort-schothorst","type":"stoptreinstation"},"category":"netherlands_all"}
{"type":"node","id":"AVAT","lat":52.192779541016,"lon":5.4338889122009,"tags":{"name":"Amersfoort Vathorst","uic":"8400228","name_short":"Vathorst","name_medium":"Vathorst","slug":"amersfoort-vathorst","type":"stoptreinstation"},"category":"netherlands_all"}
{"type":"node","id":"ASA","lat":52.346668243408,"lon":4.9177780151367,"tags":{"name":"Amsterdam Amstel","uic":"8400057","name_short":"Amstel","name_medium":"Amstel","slug":"amsterdam-amstel","type":"intercitystation"},"category":"netherlands_all"}
{"type":"node","id":"ASB","lat":52.3122215271,"lon":4.9469442367554,"tags":{"name":"Amsterdam Bijlmer ArenA","uic":"8400074","name_short":"Bijlmer A","name_medium":"Bijlmer ArenA","slug":"amsterdam-bijlmer-arena","type":"knooppuntStoptreinstation"},"category":"netherlands_all"}
{"type":"node","id":"ASD","lat":52.378887176514,"lon":4.9002776145935,"tags":{"name":"Amsterdam Centraal","uic":"8400058","name_short":"Amsterdm C","name_medium":"Amsterdam C.","slug":"amsterdam-centraal","type":"megastation"},"category":"netherlands_all"}
{"type":"node","id":"ASHD","lat":52.29844,"lon":4.95972,"tags":{"name":"Amsterdam Holendrecht","uic":"8400231","name_short":"Holendrcht","name_medium":"Holendrecht","slug":"amsterdam-holendrecht","type":"stoptreinstation"},"category":"netherlands_all"}
{"type":"node","id":"ASDL","lat":52.357776641846,"lon":4.8338890075684,"tags":{"name":"Amsterdam Lelylaan","uic":"8400079","name_short":"Lelylaan","name_medium":"Lelylaan","slug":"amsterdam-lelylaan","type":"stoptreinstation"},"category":"netherlands_all"}
{"type":"node","id":"ASDM","lat":52.360553741455,"lon":4.9311113357544,"tags":{"name":"Amsterdam Muiderpoort","uic":"8400060","name_short":"Muiderprt","name_medium":"Muiderpoort","slug":"amsterdam-muiderpoort","type":"stoptreinstation"},"category":"netherlands_all"}
{"type":"node","id":"RAI","lat":52.337223052979,"lon":4.8902778625488,"tags":{"name":"Amsterdam RAI","uic":"8400056","name_short":"RAI","name_medium":"RAI","slug":"amsterdam-rai","type":"stoptreinstation"},"category":"netherlands_all"}
{"type":"node","id":"ASSP","lat":52.35526,"lon":4.94651,"tags":{"name":"Amsterdam Science Park","uic":"8400235","name_short":"Scienceprk","name_medium":"Science Park","slug":"amsterdam-science-park","type":"stoptreinstation"},"category":"netherlands_all"}
{"type":"node","id":"ASS","lat":52.388889312744,"lon":4.8377776145935,"tags":{"name":"Amsterdam Sloterdijk","uic":"8400059","name_short":"Sloterdijk","name_medium":"Sloterdijk","slug":"amsterdam-sloterdijk","type":"knooppuntIntercitystation"},"category":"netherlands_all"}
{"type":"node","id":"ASDZ","lat":52.338889,"lon":4.872356,"tags":{"name":"Amsterdam Zuid","uic":"8400061","name_short":"Amsterdm Z","name_medium":"Amsterdam Zuid","slug":"amsterdam-zuid","type":"intercitystation"},"category":"netherlands_all"}
{"type":"node","id":"ANA","lat":52.867221832275,"lon":4.8111109733581,"tags":{"name":"Anna Paulowna","uic":"8400065","name_short":"Anna Paulo","name_medium":"Anna Paulowna","slug":"anna-paulowna","type":"stoptreinstation"},"category":"netherlands_all"}
{"type":"node","id":"APD","lat":52.209167480469,"lon":5.9702777862549,"tags":{"name":"Apeldoorn","uic":"8400066","name_short":"Apeldoorn","name_medium":"Apeldoorn","slug":"apeldoorn","type":"knooppuntIntercitystation"},"category":"netherlands_all"}
{"type":"node","id":"APDM","lat":52.205276489258,"lon":6.0005555152893,"tags":{"name":"Apeldoorn De Maten","uic":"8400233","name_short":"De Maten","name_medium":"De Maten","slug":"apeldoorn-de-maten","type":"stoptreinstation"},"category":"netherlands_all"}
{"type":"node","id":"APDO","lat":52.215278625488,"lon":6.0044445991516,"tags":{"name":"Apeldoorn Osseveld","uic":"8400229","name_short":"Osseveld","name_medium":"Osseveld","slug":"apeldoorn-osseveld","type":"stoptreinstation"},"category":"netherlands_all"}
{"type":"node","id":"APG","lat":53.3258135,"lon":6.8619577,"tags":{"name":"Appingedam","uic":"8400067","name_short":"Appingedam","name_medium":"Appingedam","slug":"appingedam","type":"stoptreinstation"},"category":"netherlands_all"}
{"type":"node","id":"AKL","lat":51.87194442749,"lon":4.9927778244019,"tags":{"name":"Arkel","uic":"8400068","name_short":"Arkel","name_medium":"Arkel","slug":"arkel","type":"stoptreinstation"},"category":"netherlands_all"}
{"type":"node","id":"ARN","lat":51.501667022705,"lon":3.6691665649414,"tags":{"name":"Arnemuiden","uic":"8400069","name_short":"Arnemuiden","name_medium":"Arnemuiden","slug":"arnemuiden","type":"stoptreinstation"},"category":"netherlands_all"}
{"type":"node","id":"AH","lat":51.985000610352,"lon":5.8991665840149,"tags":{"name":"Arnhem Centraal","uic":"8400071","name_short":"Arnhem C","name_medium":"Arnhem C.","slug":"arnhem-centraal","type":"knooppuntIntercitystation"},"category":"netherlands_all"}
{"type":"node","id":"AHPR","lat":51.988056182861,"lon":5.9438886642456,"tags":{"name":"Arnhem Presikhaaf","uic":"8400075","name_short":"Presikhaaf","name_medium":"Presikhaaf","slug":"arnhem-presikhaaf","type":"stoptreinstation"},"category":"netherlands_all"}
{"type":"node","id":"AHP","lat":51.985279083252,"lon":5.9194445610046,"tags":{"name":"Arnhem Velperpoort","uic":"8400072","name_short":"Velperprt","name_medium":"Velperpoort","slug":"arnhem-velperpoort","type":"stoptreinstation"},"category":"netherlands_all"}
{"type":"node","id":"AHZ","lat":51.955001831055,"lon":5.8519444465637,"tags":{"name":"Arnhem Zuid","uic":"8400227","name_short":"Arnhem Z","name_medium":"Arnhem Zuid","slug":"arnhem-zuid","type":"stoptreinstation"},"category":"netherlands_all"}
{"type":"node","id":"ASN","lat":52.991664886475,"lon":6.5708332061768,"tags":{"name":"Assen","uic":"8400073","name_short":"Assen","name_medium":"Assen","slug":"assen","type":"knooppuntIntercitystation"},"category":"netherlands_all"}
{"type":"node","id":"BRN","lat":52.208332061768,"lon":5.2808332443237,"tags":{"name":"Baarn","uic":"8400086","name_short":"Baarn","name_medium":"Baarn","slug":"baarn","type":"knooppuntStoptreinstation"},"category":"netherlands_all"}
{"type":"node","id":"NSCH","lat":53.1844,"lon":7.19937,"tags":{"name":"Bad Nieuweschans","uic":"8400457","name_short":"Nweschans","name_medium":"Bad Nieuweschans","slug":"bad-nieuweschans","type":"knooppuntStoptreinstation"},"category":"netherlands_all"}
{"type":"node","id":"BF","lat":53.3608969,"lon":6.5185581,"tags":{"name":"Baflo","uic":"8400089","name_short":"Baflo","name_medium":"Baflo","slug":"baflo","type":"stoptreinstation"},"category":"netherlands_all"}
{"type":"node","id":"BRD","lat":51.854721069336,"lon":4.5533332824707,"tags":{"name":"Barendrecht","uic":"8400090","name_short":"Barendrcht","name_medium":"Barendrecht","slug":"barendrecht","type":"stoptreinstation"},"category":"netherlands_all"}
{"type":"node","id":"BNC","lat":52.139999389648,"lon":5.590277671814,"tags":{"name":"Barneveld Centrum","uic":"8400091","name_short":"Barnevld C","name_medium":"Barneveld C.","slug":"barneveld-centrum","type":"stoptreinstation"},"category":"netherlands_all"}
{"type":"node","id":"BNN","lat":52.161388397217,"lon":5.5980553627014,"tags":{"name":"Barneveld Noord","uic":"8400092","name_short":"Barnevld N","name_medium":"Barneveld Noord","slug":"barneveld-noord","type":"stoptreinstation"},"category":"netherlands_all"}
{"type":"node","id":"BNZ","lat":52.128853,"lon":5.60246,"tags":{"name":"Barneveld Zuid","uic":"8400115","name_short":"Barnevld Z","name_medium":"Barneveld Zuid","slug":"barneveld-zuid","type":"stoptreinstation"},"category":"netherlands_all"}
{"type":"node","id":"BDM","lat":53.3068857,"lon":6.593054,"tags":{"name":"Bedum","uic":"8400094","name_short":"Bedum","name_medium":"Bedum","slug":"bedum","type":"stoptreinstation"},"category":"netherlands_all"}
{"type":"node","id":"BK","lat":50.947498321533,"lon":5.7866668701172,"tags":{"name":"Beek-Elsloo","uic":"8400096","name_short":"Beek-E","name_medium":"Beek-Elsloo","slug":"beek-elsloo","type":"stoptreinstation"},"category":"netherlands_all"}
{"type":"node","id":"BSD","lat":51.899444580078,"lon":5.1944446563721,"tags":{"name":"Beesd","uic":"8400097","name_short":"Beesd","name_medium":"Beesd","slug":"beesd","type":"stoptreinstation"},"category":"netherlands_all"}
{"type":"node","id":"BL","lat":52.854721069336,"lon":6.5211110115051,"tags":{"name":"Beilen","uic":"8400100","name_short":"Beilen","name_medium":"Beilen","slug":"beilen","type":"stoptreinstation"},"category":"netherlands_all"}
{"type":"node","id":"BGN","lat":51.49388885498,"lon":4.2961111068726,"tags":{"name":"Bergen op Zoom","uic":"8400108","name_short":"Bergen opZ","name_medium":"Bergen op Zoom","slug":"bergen-op-zoom","type":"stoptreinstation"},"category":"netherlands_all"}
{"type":"node","id":"BET","lat":51.509998321533,"lon":5.3891668319702,"tags":{"name":"Best","uic":"8400112","name_short":"Best","name_medium":"Best","slug":"best","type":"stoptreinstation"},"category":"netherlands_all"}
{"type":"node","id":"BV","lat":52.478332519531,"lon":4.6566667556763,"tags":{"name":"Beverwijk","uic":"8400113","name_short":"Beverwijk","name_medium":"Beverwijk","slug":"beverwijk","type":"stoptreinstation"},"category":"netherlands_all"}
{"type":"node","id":"BHV","lat":52.130001068115,"lon":5.2038888931274,"tags":{"name":"Bilthoven","uic":"8400114","name_short":"Bilthoven","name_medium":"Bilthoven","slug":"bilthoven","type":"stoptreinstation"},"category":"netherlands_all"}
{"type":"node","id":"BR","lat":51.372501373291,"lon":6.1550002098083,"tags":{"name":"Blerick","uic":"8400117","name_short":"Blerick","name_medium":"Blerick","slug":"blerick","type":"stoptreinstation"},"category":"netherlands_all"}
{"type":"node","id":"BLL","lat":52.404167175293,"lon":4.6275000572205,"tags":{"name":"Bloemendaal","uic":"8400118","name_short":"Bloemendl","name_medium":"Bloemendaal","slug":"bloemendaal","type":"stoptreinstation"},"category":"netherlands_all"}
{"type":"node","id":"BDG","lat":52.081390380859,"lon":4.7461109161377,"tags":{"name":"Bodegraven","uic":"8400121","name_short":"Bodegraven","name_medium":"Bodegraven","slug":"bodegraven","type":"stoptreinstation"},"category":"netherlands_all"}
{"type":"node","id":"BN","lat":52.298889160156,"lon":6.7480554580689,"tags":{"name":"Borne","uic":"8400124","name_short":"Borne","name_medium":"Borne","slug":"borne","type":"stoptreinstation"},"category":"netherlands_all"}
{"type":"node","id":"BSK","lat":52.077777862549,"lon":4.6469445228577,"tags":{"name":"Boskoop","uic":"8400125","name_short":"Boskoop","name_medium":"Boskoop","slug":"boskoop","type":"stoptreinstation"},"category":"netherlands_all"}
{"type":"node","id":"BSKS","lat":52.067658,"lon":4.646186,"tags":{"name":"Boskoop Snijdelwijk","uic":"8400126","name_short":"Snijdelwk","name_medium":"Snijdelwijk","slug":"boskoop-snijdelwijk","type":"stoptreinstation"},"category":"netherlands_all"}
{"type":"node","id":"BHDV","lat":51.832222,"lon":4.878056,"tags":{"name":"Boven-Hardinxveld","uic":"8400236","name_short":"Boven-Har","name_medium":"Boven-Hardinxv.","slug":"boven-hardinxveld","type":"stoptreinstation"},"category":"netherlands_all"}
{"type":"node","id":"BKF","lat":52.696109771729,"lon":5.2527775764465,"tags":{"name":"Bovenkarspel Flora","uic":"8400230","name_short":"Bovenk Flo","name_medium":"Bovenkarspel Fl.","slug":"bovenkarspel-flora","type":"stoptreinstation"},"category":"netherlands_all"}
{"type":"node","id":"BKG","lat":52.694999694824,"lon":5.2377777099609,"tags":{"name":"Bovenkarspel-Grootebroek","uic":"8400127","name_short":"Bovenk-Gr","name_medium":"Bovenkarspel-Gr.","slug":"bovenkarspel-grootebroek","type":"stoptreinstation"},"category":"netherlands_all"}
{"type":"node","id":"BMR","lat":51.644521767653,"lon":5.9390330314636,"tags":{"name":"Boxmeer","uic":"8400128","name_short":"Boxmeer","name_medium":"Boxmeer","slug":"boxmeer","type":"knooppuntStoptreinstation"},"category":"netherlands_all"}
{"type":"node","id":"BTL","lat":51.58433,"lon":5.31912,"tags":{"name":"Boxtel","uic":"8400129","name_short":"Boxtel","name_medium":"Boxtel","slug":"boxtel","type":"knooppuntStoptreinstation"},"category":"netherlands_all"}
{"type":"node","id":"BD","lat":51.595554351807,"lon":4.7800002098083,"tags":{"name":"Breda","uic":"8400131","name_short":"Breda","name_medium":"Breda","slug":"breda","type":"knooppuntIntercitystation"},"category":"netherlands_all"}
{"type":"node","id":"BDPB","lat":51.606388092041,"lon":4.7208333015442,"tags":{"name":"Breda-Prinsenbeek","uic":"8400132","name_short":"Prinsenbk","name_medium":"Prinsenbeek","slug":"breda-prinsenbeek","type":"stoptreinstation"},"category":"netherlands_all"}
{"type":"node","id":"BKL","lat":52.17149,"lon":4.9906,"tags":{"name":"Breukelen","uic":"8400133","name_short":"Breukelen","name_medium":"Breukelen","slug":"breukelen","type":"knooppuntStoptreinstation"},"category":"netherlands_all"}
{"type":"node","id":"BMN","lat":52.091110229492,"lon":6.1469445228577,"tags":{"name":"Brummen","uic":"8400136","name_short":"Brummen","name_medium":"Brummen","slug":"brummen","type":"stoptreinstation"},"category":"netherlands_all"}
{"type":"node","id":"BP","lat":53.2564547,"lon":6.1446496,"tags":{"name":"Buitenpost","uic":"8400139","name_short":"Buitenpost","name_medium":"Buitenpost","slug":"buitenpost","type":"knooppuntSneltreinstation"},"category":"netherlands_all"}
{"type":"node","id":"BDE","lat":50.896945953369,"lon":5.7366666793823,"tags":{"name":"Bunde","uic":"8400140","name_short":"Bunde","name_medium":"Bunde","slug":"bunde","type":"stoptreinstation"},"category":"netherlands_all"}
{"type":"node","id":"BNK","lat":52.063056945801,"lon":5.1944446563721,"tags":{"name":"Bunnik","uic":"8400141","name_short":"Bunnik","name_medium":"Bunnik","slug":"bunnik","type":"stoptreinstation"},"category":"netherlands_all"}
{"type":"node","id":"BSMZ","lat":52.26583480835,"lon":5.1630554199219,"tags":{"name":"Bussum Zuid","uic":"8400145","name_short":"Bussum Z","name_medium":"Bussum Zuid","slug":"bussum-zuid","type":"stoptreinstation"},"category":"netherlands_all"}
{"type":"node","id":"CPS","lat":51.954166412354,"lon":4.5841665267944,"tags":{"name":"Capelle Schollevaar","uic":"8400147","name_short":"Schollevr","name_medium":"Schollevaar","slug":"capelle-schollevaar","type":"stoptreinstation"},"category":"netherlands_all"}
{"type":"node","id":"CAS","lat":52.545833587646,"lon":4.6586112976074,"tags":{"name":"Castricum","uic":"8400151","name_short":"Castricum","name_medium":"Castricum","slug":"castricum","type":"intercitystation"},"category":"netherlands_all"}
{"type":"node","id":"CVM","lat":50.876110076904,"lon":6.0597224235535,"tags":{"name":"Chevremont","uic":"8400152","name_short":"Chevremont","name_medium":"Chevremont","slug":"chevremont","type":"stoptreinstation"},"category":"netherlands_all"}
{"type":"node","id":"CO","lat":52.663612365723,"lon":6.7355556488037,"tags":{"name":"Coevorden","uic":"8400153","name_short":"Coevorden","name_medium":"Coevorden","slug":"coevorden","type":"knooppuntSneltreinstation"},"category":"netherlands_all"}
{"type":"node","id":"CK","lat":51.726682587905,"lon":5.8742952346802,"tags":{"name":"Cuijk","uic":"8400155","name_short":"Cuijk","name_medium":"Cuijk","slug":"cuijk","type":"stoptreinstation"},"category":"netherlands_all"}
{"type":"node","id":"CL","lat":51.946666717529,"lon":5.2269444465637,"tags":{"name":"Culemborg","uic":"8400154","name_short":"Culemborg","name_medium":"Culemborg","slug":"culemborg","type":"stoptreinstation"},"category":"netherlands_all"}
{"type":"node","id":"DA","lat":52.4407702,"lon":6.5759947,"tags":{"name":"Daarlerveen","uic":"8400164","name_short":"Daarlervn","name_medium":"Daarlerveen","slug":"daarlerveen","type":"stoptreinstation"},"category":"netherlands_all"}
{"type":"node","id":"DLN","lat":52.69416809082,"lon":6.7580556869507,"tags":{"name":"Dalen","uic":"8400161","name_short":"Dalen","name_medium":"Dalen","slug":"dalen","type":"stoptreinstation"},"category":"netherlands_all"}
{"type":"node","id":"DL","lat":52.498332977295,"lon":6.25861120224,"tags":{"name":"Dalfsen","uic":"8400167","name_short":"Dalfsen","name_medium":"Dalfsen","slug":"dalfsen","type":"sneltreinstation"},"category":"netherlands_all"}
{"type":"node","id":"DVNK","lat":52.147220611572,"lon":4.4563889503479,"tags":{"name":"De Vink","uic":"8400188","name_short":"De Vink","name_medium":"De Vink","slug":"de-vink","type":"stoptreinstation"},"category":"netherlands_all"}
{"type":"node","id":"DWE","lat":53.24817,"lon":6.03463,"tags":{"name":"De Westereen","uic":"8400745","name_short":"Westereen","name_medium":"De Westereen","slug":"de-westereen","type":"stoptreinstation"},"category":"netherlands_all"}
{"type":"node","id":"DEI","lat":53.1888115,"lon":5.7281572,"tags":{"name":"Deinum","uic":"8400168","name_short":"Deinum","name_medium":"Deinum","slug":"deinum","type":"stoptreinstation"},"category":"netherlands_all"}
{"type":"node","id":"DDN","lat":52.259998321533,"lon":6.7161111831665,"tags":{"name":"Delden","uic":"8400169","name_short":"Delden","name_medium":"Delden","slug":"delden","type":"stoptreinstation"},"category":"netherlands_all"}
{"type":"node","id":"DT","lat":52.00666809082,"lon":4.3563890457153,"tags":{"name":"Delft","uic":"8400170","name_short":"Delft","name_medium":"Delft","slug":"delft","type":"knooppuntIntercitystation"},"category":"netherlands_all"}
{"type":"node","id":"DTCP","lat":51.990833282471,"lon":4.3647222518921,"tags":{"name":"Delft Campus","uic":"8400166","name_short":"Delft Camp","name_medium":"Delft Campus","slug":"delft-campus","type":"stoptreinstation"},"category":"netherlands_all"}
{"type":"node","id":"DZ","lat":53.3336625,"lon":6.9240797,"tags":{"name":"Delfzijl","uic":"8400171","name_short":"Delfzijl","name_medium":"Delfzijl","slug":"delfzijl","type":"stoptreinstation"},"category":"netherlands_all"}
{"type":"node","id":"DZW","lat":53.3320834,"lon":6.9069092,"tags":{"name":"Delfzijl West","uic":"8400175","name_short":"Delfzijl W","name_medium":"Delfzijl West","slug":"delfzijl-west","type":"stoptreinstation"},"category":"netherlands_all"}
{"type":"node","id":"DLD","lat":52.140277862549,"lon":5.2427778244019,"tags":{"name":"Den Dolder","uic":"8400179","name_short":"Den Dolder","name_medium":"Den Dolder","slug":"den-dolder","type":"knooppuntStoptreinstation"},"category":"netherlands_all"}
{"type":"node","id":"GVC","lat":52.080276489258,"lon":4.3249998092651,"tags":{"name":"Den Haag Centraal","uic":"8400282","name_short":"Den Haag C","name_medium":"Den Haag C.","slug":"den-haag-centraal","type":"megastation"},"category":"netherlands_all"}
{"type":"node","id":"GV","lat":52.069721221924,"lon":4.3225002288818,"tags":{"name":"Den Haag HS","uic":"8400280","name_short":"Dn Haag HS","name_medium":"Den Haag HS","slug":"den-haag-hs","type":"knooppuntIntercitystation"},"category":"netherlands_all"}
{"type":"node","id":"LAA","lat":52.078609466553,"lon":4.3427777290344,"tags":{"name":"Den Haag Laan v NOI","uic":"8400380","name_short":"Laan v NOI","name_medium":"Laan v NOI","slug":"den-haag-laan-v-noi","type":"knooppuntStoptreinstation"},"category":"netherlands_all"}
{"type":"node","id":"GVM","lat":52.090557098389,"lon":4.3694443702698,"tags":{"name":"Den Haag Mariahoeve","uic":"8400278","name_short":"Mariahoeve","name_medium":"Mariahoeve","slug":"den-haag-mariahoeve","type":"stoptreinstation"},"category":"netherlands_all"}
{"type":"node","id":"GVMW","lat":52.053890228271,"lon":4.3086109161377,"tags":{"name":"Den Haag Moerwijk","uic":"8400279","name_short":"Moerwijk","name_medium":"Moerwijk","slug":"den-haag-moerwijk","type":"stoptreinstation"},"category":"netherlands_all"}
{"type":"node","id":"YPB","lat":52.055278778076,"lon":4.39222240448,"tags":{"name":"Den Haag Ypenburg","uic":"8400379","name_short":"Ypenburg","name_medium":"Ypenburg","slug":"den-haag-ypenburg","type":"stoptreinstation"},"category":"netherlands_all"}
{"type":"node","id":"HDR","lat":52.955276489258,"lon":4.7611112594605,"tags":{"name":"Den Helder","uic":"8400311","name_short":"Den Helder","name_medium":"Den Helder","slug":"den-helder","type":"intercitystation"},"category":"netherlands_all"}
{"type":"node","id":"HDRZ","lat":52.932498931885,"lon":4.7641668319702,"tags":{"name":"Den Helder Zuid","uic":"8400303","name_short":"Dn Heldr Z","name_medium":"Den Helder Zuid","slug":"den-helder-zuid","type":"stoptreinstation"},"category":"netherlands_all"}
{"type":"node","id":"DN","lat":51.455833435059,"lon":5.7888889312744,"tags":{"name":"Deurne","uic":"8400172","name_short":"Deurne","name_medium":"Deurne","slug":"deurne","type":"stoptreinstation"},"category":"netherlands_all"}
{"type":"node","id":"DV","lat":52.257499694824,"lon":6.1605553627014,"tags":{"name":"Deventer","uic":"8400173","name_short":"Deventer","name_medium":"Deventer","slug":"deventer","type":"knooppuntIntercitystation"},"category":"netherlands_all"}
{"type":"node","id":"DVC","lat":52.2502784729,"lon":6.2144446372986,"tags":{"name":"Deventer Colmschate","uic":"8400185","name_short":"Colmschate","name_medium":"Colmschate","slug":"deventer-colmschate","type":"stoptreinstation"},"category":"netherlands_all"}
{"type":"node","id":"DID","lat":51.933502,"lon":6.1324106,"tags":{"name":"Didam","uic":"8400174","name_short":"Didam","name_medium":"Didam","slug":"didam","type":"stoptreinstation"},"category":"netherlands_all"}
{"type":"node","id":"DMN","lat":52.34515,"lon":4.967566,"tags":{"name":"Diemen","uic":"8400165","name_short":"Diemen","name_medium":"Diemen","slug":"diemen","type":"stoptreinstation"},"category":"netherlands_all"}
{"type":"node","id":"DMNZ","lat":52.330276489258,"lon":4.9558334350586,"tags":{"name":"Diemen Zuid","uic":"8400163","name_short":"Diemen Z","name_medium":"Diemen Zuid","slug":"diemen-zuid","type":"stoptreinstation"},"category":"netherlands_all"}
{"type":"node","id":"DR","lat":52.044998168945,"lon":6.1030554771423,"tags":{"name":"Dieren","uic":"8400176","name_short":"Dieren","name_medium":"Dieren","slug":"dieren","type":"intercitystation"},"category":"netherlands_all"}
{"type":"node","id":"DTC","lat":51.9585962,"lon":6.2962148,"tags":{"name":"Doetinchem","uic":"8400177","name_short":"Doetinchem","name_medium":"Doetinchem","slug":"doetinchem","type":"knooppuntStoptreinstation"},"category":"netherlands_all"}
{"type":"node","id":"DTCH","lat":51.9591413,"lon":6.2598521,"tags":{"name":"Doetinchem De Huet","uic":"8400184","name_short":"De Huet","name_medium":"De Huet","slug":"doetinchem-de-huet","type":"stoptreinstation"},"category":"netherlands_all"}
{"type":"node","id":"DDR","lat":51.807220458984,"lon":4.668333530426,"tags":{"name":"Dordrecht","uic":"8400180","name_short":"Dordrecht","name_medium":"Dordrecht","slug":"dordrecht","type":"knooppuntIntercitystation"},"category":"netherlands_all"}
{"type":"node","id":"DDRS","lat":51.801944732666,"lon":4.7166666984558,"tags":{"name":"Dordrecht Stadspolders","uic":"8400186","name_short":"Stadspldrs","name_medium":"Stadspolders","slug":"dordrecht-stadspolders","type":"stoptreinstation"},"category":"netherlands_all"}
{"type":"node","id":"DDZD","lat":51.790000915527,"lon":4.6713891029358,"tags":{"name":"Dordrecht Zuid","uic":"8400181","name_short":"Dordrcht Z","name_medium":"Dordrecht Zuid","slug":"dordrecht-zuid","type":"stoptreinstation"},"category":"netherlands_all"}
{"type":"node","id":"DB","lat":52.065277099609,"lon":5.25861120224,"tags":{"name":"Driebergen-Zeist","uic":"8400182","name_short":"Driebergen","name_medium":"Driebergen-Zeist","slug":"driebergen-zeist","type":"knooppuntStoptreinstation"},"category":"netherlands_all"}
{"type":"node","id":"DRH","lat":52.442501068115,"lon":4.6380553245544,"tags":{"name":"Driehuis","uic":"8400183","name_short":"Driehuis","name_medium":"Driehuis","slug":"driehuis","type":"stoptreinstation"},"category":"netherlands_all"}
{"type":"node","id":"DRP","lat":53.1778086,"lon":5.6347411,"tags":{"name":"Dronryp","uic":"8400192","name_short":"Dronryp","name_medium":"Dronryp","slug":"dronryp","type":"stoptreinstation"},"category":"netherlands_all"}
{"type":"node","id":"DRON","lat":52.5344,"lon":5.72089,"tags":{"name":"Dronten","uic":"8400198","name_short":"Dronten","name_medium":"Dronten","slug":"dronten","type":"stoptreinstation"},"category":"netherlands_all"}
{"type":"node","id":"DVN","lat":51.943332672119,"lon":6.0147223472595,"tags":{"name":"Duiven","uic":"8400193","name_short":"Duiven","name_medium":"Duiven","slug":"duiven","type":"stoptreinstation"},"category":"netherlands_all"}
{"type":"node","id":"DVD","lat":52.323333740234,"lon":4.9363889694214,"tags":{"name":"Duivendrecht","uic":"8400194","name_short":"Duivendrt","name_medium":"Duivendrecht","slug":"duivendrecht","type":"knooppuntStoptreinstation"},"category":"netherlands_all"}
{"type":"node","id":"EC","lat":51.100555419922,"lon":5.8788890838623,"tags":{"name":"Echt","uic":"8400195","name_short":"Echt","name_medium":"Echt","slug":"echt","type":"stoptreinstation"},"category":"netherlands_all"}
{"type":"node","id":"EDC","lat":52.043609619141,"lon":5.668333530426,"tags":{"name":"Ede Centrum","uic":"8400201","name_short":"Ede C","name_medium":"Ede C.","slug":"ede-centrum","type":"stoptreinstation"},"category":"netherlands_all"}
{"type":"node","id":"ED","lat":52.027778625488,"lon":5.6730556488037,"tags":{"name":"Ede-Wageningen","uic":"8400200","name_short":"Ede-Wag","name_medium":"Ede-Wageningen","slug":"ede-wageningen","type":"knooppuntIntercitystation"},"category":"netherlands_all"}
{"type":"node","id":"EEM","lat":53.458419,"lon":6.832,"tags":{"name":"Eemshaven","uic":"8400202","name_short":"Eemshaven","name_medium":"Eemshaven","slug":"eemshaven","type":"stoptreinstation"},"category":"netherlands_all"}
{"type":"node","id":"EDN","lat":50.771945953369,"lon":5.710000038147,"tags":{"name":"Eijsden","uic":"8400219","name_short":"Eijsden","name_medium":"Eijsden","slug":"eijsden","type":"stoptreinstation"},"category":"netherlands_all"}
{"type":"node","id":"EHV","lat":51.443332672119,"lon":5.4813890457153,"tags":{"name":"Eindhoven Centraal","uic":"8400206","name_short":"Eindhovn C","name_medium":"Eindhoven C.","slug":"eindhoven-centraal","type":"megastation"},"category":"netherlands_all"}
{"type":"node","id":"EHS","lat":51.451110839844,"lon":5.4558334350586,"tags":{"name":"Eindhoven Strijp-S","uic":"8400196","name_short":"Strijp-S","name_medium":"Strijp-S","slug":"eindhoven-strijp-s","type":"stoptreinstation"},"category":"netherlands_all"}
{"type":"node","id":"EST","lat":51.916942596435,"lon":5.8550000190735,"tags":{"name":"Elst","uic":"8400207","name_short":"Elst","name_medium":"Elst","slug":"elst","type":"knooppuntStoptreinstation"},"category":"netherlands_all"}
{"type":"node","id":"EMN","lat":52.790000915527,"lon":6.8994445800781,"tags":{"name":"Emmen","uic":"8400208","name_short":"Emmen","name_medium":"Emmen","slug":"emmen","type":"sneltreinstation"},"category":"netherlands_all"}
{"type":"node","id":"EMNZ","lat":52.748866374691,"lon":6.8747806549072,"tags":{"name":"Emmen Zuid","uic":"8400407","name_short":"Emmen Z","name_medium":"Emmen Zuid","slug":"emmen-zuid","type":"sneltreinstation"},"category":"netherlands_all"}
{"type":"node","id":"EKZ","lat":52.699165344238,"lon":5.286388874054,"tags":{"name":"Enkhuizen","uic":"8400210","name_short":"Enkhuizen","name_medium":"Enkhuizen","slug":"enkhuizen","type":"stoptreinstation"},"category":"netherlands_all"}
{"type":"node","id":"ES","lat":52.222499847412,"lon":6.8899998664856,"tags":{"name":"Enschede","uic":"8400212","name_short":"Enschede","name_medium":"Enschede","slug":"enschede","type":"knooppuntIntercitystation"},"category":"netherlands_all"}
{"type":"node","id":"ESE","lat":52.221389770508,"lon":6.9511113166809,"tags":{"name":"Enschede De Eschmarke","uic":"8400217","name_short":"Eschmarke","name_medium":"De Eschmarke","slug":"enschede-de-eschmarke","type":"stoptreinstation"},"category":"netherlands_all"}
{"type":"node","id":"ESK","lat":52.23749923706,"lon":6.8388891220093,"tags":{"name":"Enschede Kennispark","uic":"8400221","name_short":"Kennispark","name_medium":"Kennispark","slug":"enschede-kennispark","type":"stoptreinstation"},"category":"netherlands_all"}
{"type":"node","id":"EML","lat":52.301666259766,"lon":5.6147222518921,"tags":{"name":"Ermelo","uic":"8400216","name_short":"Ermelo","name_medium":"Ermelo","slug":"ermelo","type":"stoptreinstation"},"category":"netherlands_all"}
{"type":"node","id":"ETN","lat":51.57500076294,"lon":4.6358332633972,"tags":{"name":"Etten-Leur","uic":"8400218","name_short":"Etten-Leur","name_medium":"Etten-Leur","slug":"etten-leur","type":"intercitystation"},"category":"netherlands_all"}
{"type":"node","id":"EGH","lat":50.890556335449,"lon":6.0450000762939,"tags":{"name":"Eygelshoven","uic":"8400338","name_short":"Eygelshov","name_medium":"Eygelshoven","slug":"eygelshoven","type":"stoptreinstation"},"category":"netherlands_all"}
{"type":"node","id":"EGHM","lat":50.896049819644,"lon":6.0602474212646,"tags":{"name":"Eygelshoven Markt","uic":"8400234","name_short":"Eygelsh M","name_medium":"Eygelshoven Mrkt","slug":"eygelshoven-markt","type":"stoptreinstation"},"category":"netherlands_all"}
{"type":"node","id":"FWD","lat":53.2351834,"lon":5.9886615,"tags":{"name":"Feanwâlden","uic":"8400638","name_short":"Feanwâlden","name_medium":"Feanwâlden","slug":"feanwalden","type":"stoptreinstation"},"category":"netherlands_all"}
{"type":"node","id":"FN","lat":53.1824488,"lon":5.5483094,"tags":{"name":"Franeker","uic":"8400232","name_short":"Franeker","name_medium":"Franeker","slug":"franeker","type":"stoptreinstation"},"category":"netherlands_all"}
{"type":"node","id":"GDR","lat":51.93074,"lon":6.3486,"tags":{"name":"Gaanderen","uic":"8400241","name_short":"Gaanderen","name_medium":"Gaanderen","slug":"gaanderen","type":"stoptreinstation"},"category":"netherlands_all"}
{"type":"node","id":"GDM","lat":51.88301,"lon":5.27127,"tags":{"name":"Geldermalsen","uic":"8400244","name_short":"Geldermlsn","name_medium":"Geldermalsen","slug":"geldermalsen","type":"knooppuntStoptreinstation"},"category":"netherlands_all"}
{"type":"node","id":"GP","lat":51.419723510742,"lon":5.5505557060242,"tags":{"name":"Geldrop","uic":"8400245","name_short":"Geldrop","name_medium":"Geldrop","slug":"geldrop","type":"knooppuntStoptreinstation"},"category":"netherlands_all"}
{"type":"node","id":"GLN","lat":50.966945648193,"lon":5.8430557250977,"tags":{"name":"Geleen Oost","uic":"8400246","name_short":"Geleen O","name_medium":"Geleen Oost","slug":"geleen-oost","type":"stoptreinstation"},"category":"netherlands_all"}
{"type":"node","id":"LUT","lat":50.975555419922,"lon":5.8247222900391,"tags":{"name":"Geleen-Lutterade","uic":"8400248","name_short":"Geleen-Lut","name_medium":"Geleen-Lut.","slug":"geleen-lutterade","type":"stoptreinstation"},"category":"netherlands_all"}
{"type":"node","id":"GZ","lat":51.583610534668,"lon":4.9261112213135,"tags":{"name":"Gilze-Rijen","uic":"8400251","name_short":"Gilze-Rij","name_medium":"Gilze-Rijen","slug":"gilze-rijen","type":"stoptreinstation"},"category":"netherlands_all"}
{"type":"node","id":"GBR","lat":52.218612670898,"lon":6.9744443893433,"tags":{"name":"Glanerbrug","uic":"8400262","name_short":"Glanerbrug","name_medium":"Glanerbrug","slug":"glanerbrug","type":"stoptreinstation"},"category":"netherlands_all"}
{"type":"node","id":"GS","lat":51.498054504395,"lon":3.8905556201935,"tags":{"name":"Goes","uic":"8400253","name_short":"Goes","name_medium":"Goes","slug":"goes","type":"stoptreinstation"},"category":"netherlands_all"}
{"type":"node","id":"GO","lat":52.230278015137,"lon":6.5844445228577,"tags":{"name":"Goor","uic":"8400254","name_short":"Goor","name_medium":"Goor","slug":"goor","type":"stoptreinstation"},"category":"netherlands_all"}
{"type":"node","id":"GR","lat":51.833889007568,"lon":4.9683332443237,"tags":{"name":"Gorinchem","uic":"8400256","name_short":"Gorinchem","name_medium":"Gorinchem","slug":"gorinchem","type":"knooppuntStoptreinstation"},"category":"netherlands_all"}
{"type":"node","id":"GD","lat":52.017501831055,"lon":4.7044444084167,"tags":{"name":"Gouda","uic":"8400258","name_short":"Gouda","name_medium":"Gouda","slug":"gouda","type":"knooppuntIntercitystation"},"category":"netherlands_all"}
{"type":"node","id":"GDG","lat":52.014999389648,"lon":4.7408332824707,"tags":{"name":"Gouda Goverwelle","uic":"8400257","name_short":"Goverwelle","name_medium":"Goverwelle","slug":"gouda-goverwelle","type":"stoptreinstation"},"category":"netherlands_all"}
{"type":"node","id":"GBG","lat":52.60916519165,"lon":6.6758332252502,"tags":{"name":"Gramsbergen","uic":"8400259","name_short":"Gramsbergn","name_medium":"Gramsbergen","slug":"gramsbergen","type":"stoptreinstation"},"category":"netherlands_all"}
{"type":"node","id":"GK","lat":53.255740325573,"lon":6.3097786903381,"tags":{"name":"Grijpskerk","uic":"8400267","name_short":"Grijpskerk","name_medium":"Grijpskerk","slug":"grijpskerk","type":"stoptreinstation"},"category":"netherlands_all"}
{"type":"node","id":"GN","lat":53.210556030273,"lon":6.5647220611572,"tags":{"name":"Groningen","uic":"8400263","name_short":"Groningen","name_medium":"Groningen","slug":"groningen","type":"knooppuntIntercitystation"},"category":"netherlands_all"}
{"type":"node","id":"GERP","lat":53.20480027,"lon":6.5854178,"tags":{"name":"Groningen Europapark","uic":"8400238","name_short":"Europapark","name_medium":"Europapark","slug":"groningen-europapark","type":"stoptreinstation"},"category":"netherlands_all"}
{"type":"node","id":"GNN","lat":53.2301469,"lon":6.5563172,"tags":{"name":"Groningen Noord","uic":"8400264","name_short":"Groningn N","name_medium":"Groningen Noord","slug":"groningen-noord","type":"stoptreinstation"},"category":"netherlands_all"}
{"type":"node","id":"GW","lat":53.088890075684,"lon":5.8225002288818,"tags":{"name":"Grou-Jirnsum","uic":"8400266","name_short":"Grou-Jirns","name_medium":"Grou-Jirnsum","slug":"grou-jirnsum","type":"stoptreinstation"},"category":"netherlands_all"}
{"type":"node","id":"HLM","lat":52.38777923584,"lon":4.6383333206177,"tags":{"name":"Haarlem","uic":"8400285","name_short":"Haarlem","name_medium":"Haarlem","slug":"haarlem","type":"knooppuntIntercitystation"},"category":"netherlands_all"}
{"type":"node","id":"HLMS","lat":52.382778167725,"lon":4.6730556488037,"tags":{"name":"Haarlem Spaarnwoude","uic":"8400270","name_short":"Spaarnwde","name_medium":"Spaarnwoude","slug":"haarlem-spaarnwoude","type":"stoptreinstation"},"category":"netherlands_all"}
{"type":"node","id":"HWZB","lat":52.385935,"lon":4.747165,"tags":{"name":"Halfweg-Zwanenburg","uic":"8400400","name_short":"Halfweg-Zw","name_medium":"Halfweg-Zw.","slug":"halfweg-zwanenburg","type":"stoptreinstation"},"category":"netherlands_all"}
{"type":"node","id":"HDB","lat":52.572776794434,"lon":6.6286110877991,"tags":{"name":"Hardenberg","uic":"8400293","name_short":"Hardenberg","name_medium":"Hardenberg","slug":"hardenberg","type":"sneltreinstation"},"category":"netherlands_all"}
{"type":"node","id":"HD","lat":52.337501525879,"lon":5.619722366333,"tags":{"name":"Harderwijk","uic":"8400294","name_short":"Harderwijk","name_medium":"Harderwijk","slug":"harderwijk","type":"knooppuntStoptreinstation"},"category":"netherlands_all"}
{"type":"node","id":"HBZM","lat":51.82944,"lon":4.81556,"tags":{"name":"Hardinxveld Blauwe Zoom","uic":"8400438","name_short":"Blauwe Zm","name_medium":"Blauwe Zoom","slug":"hardinxveld-blauwe-zoom","type":"stoptreinstation"},"category":"netherlands_all"}
{"type":"node","id":"GND","lat":51.830554962158,"lon":4.8358335494995,"tags":{"name":"Hardinxveld-Giessendam","uic":"8400295","name_short":"Hardinxvld","name_medium":"Hardinxveld-G.","slug":"hardinxveld-giessendam","type":"stoptreinstation"},"category":"netherlands_all"}
{"type":"node","id":"HRN","lat":53.176109313965,"lon":6.6172223091125,"tags":{"name":"Haren","uic":"8400297","name_short":"Haren","name_medium":"Haren","slug":"haren","type":"stoptreinstation"},"category":"netherlands_all"}
{"type":"node","id":"HLG","lat":53.1704205,"lon":5.4251932,"tags":{"name":"Harlingen","uic":"8400296","name_short":"Harlingen","name_medium":"Harlingen","slug":"harlingen","type":"stoptreinstation"},"category":"netherlands_all"}
{"type":"node","id":"HLGH","lat":53.174917,"lon":5.4112885,"tags":{"name":"Harlingen Haven","uic":"8400298","name_short":"Harl Haven","name_medium":"Harlingen Haven","slug":"harlingen-haven","type":"stoptreinstation"},"category":"netherlands_all"}
{"type":"node","id":"HK","lat":52.495277404785,"lon":4.6869444847107,"tags":{"name":"Heemskerk","uic":"8400317","name_short":"Heemskerk","name_medium":"Heemskerk","slug":"heemskerk","type":"stoptreinstation"},"category":"netherlands_all"}
{"type":"node","id":"HAD","lat":52.35916519165,"lon":4.6066665649414,"tags":{"name":"Heemstede-Aerdenhout","uic":"8400302","name_short":"Heemstede","name_medium":"Heemstede-A.","slug":"heemstede-aerdenhout","type":"intercitystation"},"category":"netherlands_all"}
{"type":"node","id":"HR","lat":52.961387634277,"lon":5.9141664505005,"tags":{"name":"Heerenveen","uic":"8400305","name_short":"Heerenveen","name_medium":"Heerenveen","slug":"heerenveen","type":"intercitystation"},"category":"netherlands_all"}
{"type":"node","id":"HRY","lat":52.935276031494,"lon":5.9438886642456,"tags":{"name":"Heerenveen IJsstadion","uic":"8400301","name_short":"IJsstadion","name_medium":"IJsstadion","slug":"heerenveen-ijsstadion","type":"facultatiefStation"},"category":"netherlands_all"}
{"type":"node","id":"HWD","lat":52.669723510742,"lon":4.8227777481079,"tags":{"name":"Heerhugowaard","uic":"8400306","name_short":"Heerhugow","name_medium":"Heerhugowaard","slug":"heerhugowaard","type":"knooppuntStoptreinstation"},"category":"netherlands_all"}
{"type":"node","id":"HRL","lat":50.89083480835,"lon":5.9749999046326,"tags":{"name":"Heerlen","uic":"8400307","name_short":"Heerlen","name_medium":"Heerlen","slug":"heerlen","type":"knooppuntIntercitystation"},"category":"netherlands_all"}
{"type":"node","id":"HRLW","lat":50.896667,"lon":5.952222,"tags":{"name":"Heerlen Woonboulevard","uic":"8400404","name_short":"Heerlen W","name_medium":"Hrl Woonblvd","slug":"heerlen-woonboulevard","type":"stoptreinstation"},"category":"netherlands_all"}
{"type":"node","id":"HZE","lat":51.384998321533,"lon":5.5694446563721,"tags":{"name":"Heeze","uic":"8400308","name_short":"Heeze","name_medium":"Heeze","slug":"heeze","type":"stoptreinstation"},"category":"netherlands_all"}
{"type":"node","id":"HLO","lat":52.599445343018,"lon":4.7005553245544,"tags":{"name":"Heiloo","uic":"8400309","name_short":"Heiloo","name_medium":"Heiloo","slug":"heiloo","type":"stoptreinstation"},"category":"netherlands_all"}
{"type":"node","id":"HNO","lat":52.427223205566,"lon":6.2211112976074,"tags":{"name":"Heino","uic":"8400310","name_short":"Heino","name_medium":"Heino","slug":"heino","type":"stoptreinstation"},"category":"netherlands_all"}
{"type":"node","id":"HM","lat":51.475555419922,"lon":5.6619443893433,"tags":{"name":"Helmond","uic":"8400313","name_short":"Helmond","name_medium":"Helmond","slug":"helmond","type":"knooppuntIntercitystation"},"category":"netherlands_all"}
{"type":"node","id":"HMH","lat":51.46794,"lon":5.63085,"tags":{"name":"Helmond 't Hout","uic":"8400300","name_short":"'t Hout","name_medium":"'t Hout","slug":"helmond-t-hout","type":"stoptreinstation"},"category":"netherlands_all"}
{"type":"node","id":"HMBV","lat":51.462223052979,"lon":5.6072220802307,"tags":{"name":"Helmond Brandevoort","uic":"8400242","name_short":"Brandevrt","name_medium":"Brandevoort","slug":"helmond-brandevoort","type":"stoptreinstation"},"category":"netherlands_all"}
{"type":"node","id":"HMBH","lat":51.47068,"lon":5.70177,"tags":{"name":"Helmond Brouwhuis","uic":"8400299","name_short":"Brouwhuis","name_medium":"Brouwhuis","slug":"helmond-brouwhuis","type":"stoptreinstation"},"category":"netherlands_all"}
{"type":"node","id":"HMN","lat":51.9222129,"lon":5.6737254,"tags":{"name":"Hemmen-Dodewaard","uic":"8400315","name_short":"Hemmen-D","name_medium":"Hemmen-Dodew.","slug":"hemmen-dodewaard","type":"stoptreinstation"},"category":"netherlands_all"}
{"type":"node","id":"HGL","lat":52.261665344238,"lon":6.7938890457153,"tags":{"name":"Hengelo","uic":"8400316","name_short":"Hengelo","name_medium":"Hengelo","slug":"hengelo","type":"knooppuntIntercitystation"},"category":"netherlands_all"}
{"type":"node","id":"HGLG","lat":52.261667,"lon":6.767778,"tags":{"name":"Hengelo Gezondheidspark","uic":"8400433","name_short":"Gezondhprk","name_medium":"Hengelo Gezondh.","slug":"hengelo-gezondheidspark","type":"stoptreinstation"},"category":"netherlands_all"}
{"type":"node","id":"HGLO","lat":52.268890380859,"lon":6.8194446563721,"tags":{"name":"Hengelo Oost","uic":"8400312","name_short":"Hengelo O","name_medium":"Hengelo Oost","slug":"hengelo-oost","type":"stoptreinstation"},"category":"netherlands_all"}
{"type":"node","id":"HIL","lat":52.302501678467,"lon":4.5655555725098,"tags":{"name":"Hillegom","uic":"8400329","name_short":"Hillegom","name_medium":"Hillegom","slug":"hillegom","type":"stoptreinstation"},"category":"netherlands_all"}
{"type":"node","id":"HVS","lat":52.225833892822,"lon":5.1819443702698,"tags":{"name":"Hilversum","uic":"8400322","name_short":"Hilversum","name_medium":"Hilversum","slug":"hilversum","type":"knooppuntIntercitystation"},"category":"netherlands_all"}
{"type":"node","id":"HVSM","lat":52.238056182861,"lon":5.1738886833191,"tags":{"name":"Hilversum Media Park","uic":"8400324","name_short":"Media Park","name_medium":"Media Park","slug":"hilversum-media-park","type":"stoptreinstation"},"category":"netherlands_all"}
{"type":"node","id":"HVSP","lat":52.216110229492,"lon":5.1872220039368,"tags":{"name":"Hilversum Sportpark","uic":"8400570","name_short":"Sportpark","name_medium":"Sportpark","slug":"hilversum-sportpark","type":"stoptreinstation"},"category":"netherlands_all"}
{"type":"node","id":"HNP","lat":52.9464903,"lon":5.423063,"tags":{"name":"Hindeloopen","uic":"8400323","name_short":"Hindeloopn","name_medium":"Hindeloopen","slug":"hindeloopen","type":"stoptreinstation"},"category":"netherlands_all"}
{"type":"node","id":"HB","lat":50.905555725098,"lon":5.9305553436279,"tags":{"name":"Hoensbroek","uic":"8400326","name_short":"Hoensbroek","name_medium":"Hoensbroek","slug":"hoensbroek","type":"stoptreinstation"},"category":"netherlands_all"}
{"type":"node","id":"HVL","lat":52.16652,"lon":5.45718,"tags":{"name":"Hoevelaken","uic":"8400490","name_short":"Hoevelaken","name_medium":"Hoevelaken","slug":"hoevelaken","type":"stoptreinstation"},"category":"netherlands_all"}
{"type":"node","id":"HOR","lat":52.17777633667,"lon":5.1791667938232,"tags":{"name":"Hollandsche Rading","uic":"8400327","name_short":"Hol Rading","name_medium":"Holl. Rading","slug":"hollandsche-rading","type":"stoptreinstation"},"category":"netherlands_all"}
{"type":"node","id":"HON","lat":52.283889770508,"lon":6.42027759552,"tags":{"name":"Holten","uic":"8400328","name_short":"Holten","name_medium":"Holten","slug":"holten","type":"stoptreinstation"},"category":"netherlands_all"}
{"type":"node","id":"HFD","lat":52.293334960938,"lon":4.7005553245544,"tags":{"name":"Hoofddorp","uic":"8400332","name_short":"Hoofddorp","name_medium":"Hoofddorp","slug":"hoofddorp","type":"stoptreinstation"},"category":"netherlands_all"}
{"type":"node","id":"HGV","lat":52.733890533447,"lon":6.4736108779907,"tags":{"name":"Hoogeveen","uic":"8400330","name_short":"Hoogeveen","name_medium":"Hoogeveen","slug":"hoogeveen","type":"stoptreinstation"},"category":"netherlands_all"}
{"type":"node","id":"HGZ","lat":53.159818131676,"lon":6.7707538604736,"tags":{"name":"Hoogezand-Sappemeer","uic":"8400331","name_short":"Hoogezand","name_medium":"Hoogezand-Sap.","slug":"hoogezand-sappemeer","type":"knooppuntStoptreinstation"},"category":"netherlands_all"}
{"type":"node","id":"HKS","lat":52.69055557251,"lon":5.1838889122009,"tags":{"name":"Hoogkarspel","uic":"8400334","name_short":"Hoogkrspl","name_medium":"Hoogkarspel","slug":"hoogkarspel","type":"stoptreinstation"},"category":"netherlands_all"}
{"type":"node","id":"HN","lat":52.644721984863,"lon":5.0555553436279,"tags":{"name":"Hoorn","uic":"8400337","name_short":"Hoorn","name_medium":"Hoorn","slug":"hoorn","type":"knooppuntIntercitystation"},"category":"netherlands_all"}
{"type":"node","id":"HNK","lat":52.653610229492,"lon":5.0855555534363,"tags":{"name":"Hoorn Kersenboogerd","uic":"8400336","name_short":"Hoorn Kers","name_medium":"Kersenboogerd","slug":"hoorn-kersenboogerd","type":"stoptreinstation"},"category":"netherlands_all"}
{"type":"node","id":"HRT","lat":51.426387786865,"lon":6.0422220230103,"tags":{"name":"Horst-Sevenum","uic":"8400339","name_short":"Horst-Sev","name_medium":"Horst-Sevenum","slug":"horst-sevenum","type":"stoptreinstation"},"category":"netherlands_all"}
{"type":"node","id":"HTN","lat":52.03402,"lon":5.16821,"tags":{"name":"Houten","uic":"8400340","name_short":"Houten","name_medium":"Houten","slug":"houten","type":"knooppuntStoptreinstation"},"category":"netherlands_all"}
{"type":"node","id":"HTNC","lat":52.01701,"lon":5.17949,"tags":{"name":"Houten Castellum","uic":"8400335","name_short":"Castellum","name_medium":"Castellum","slug":"houten-castellum","type":"stoptreinstation"},"category":"netherlands_all"}
{"type":"node","id":"SGL","lat":50.873332977295,"lon":5.7972221374512,"tags":{"name":"Houthem-St. Gerlach","uic":"8400341","name_short":"Houthem-St","name_medium":"Houthem-St Gerl.","slug":"houthem-st-gerlach","type":"stoptreinstation"},"category":"netherlands_all"}
{"type":"node","id":"HDG","lat":53.2187783,"lon":5.934543,"tags":{"name":"Hurdegaryp","uic":"8400292","name_short":"Hurdegaryp","name_medium":"Hurdegaryp","slug":"hurdegaryp","type":"stoptreinstation"},"category":"netherlands_all"}
{"type":"node","id":"IJT","lat":53.0146614,"lon":5.6160801,"tags":{"name":"IJlst","uic":"8400722","name_short":"IJlst","name_medium":"IJlst","slug":"ijlst","type":"stoptreinstation"},"category":"netherlands_all"}
{"type":"node","id":"KPN","lat":52.559722900391,"lon":5.9216666221619,"tags":{"name":"Kampen","uic":"8400353","name_short":"Kampen","name_medium":"Kampen","slug":"kampen","type":"stoptreinstation"},"category":"netherlands_all"}
{"type":"node","id":"KPNZ","lat":52.5331,"lon":5.91309,"tags":{"name":"Kampen Zuid","uic":"8400360","name_short":"Kampen Z","name_medium":"Kampen Zuid","slug":"kampen-zuid","type":"stoptreinstation"},"category":"netherlands_all"}
{"type":"node","id":"BZL","lat":51.480834960938,"lon":3.9561111927033,"tags":{"name":"Kapelle-Biezelinge","uic":"8400354","name_short":"Kapelle-Bi","name_medium":"Kapelle-Biezel.","slug":"kapelle-biezelinge","type":"stoptreinstation"},"category":"netherlands_all"}
{"type":"node","id":"KRD","lat":50.861667633057,"lon":6.0574998855591,"tags":{"name":"Kerkrade Centrum","uic":"8400355","name_short":"Kerkrade C","name_medium":"Kerkrade C.","slug":"kerkrade-centrum","type":"knooppuntStoptreinstation"},"category":"netherlands_all"}
{"type":"node","id":"KTR","lat":51.9313869,"lon":5.5833465,"tags":{"name":"Kesteren","uic":"8400359","name_short":"Kesteren","name_medium":"Kesteren","slug":"kesteren","type":"stoptreinstation"},"category":"netherlands_all"}
{"type":"node","id":"KBK","lat":52.17805480957,"lon":6.0836110115051,"tags":{"name":"Klarenbeek","uic":"8400361","name_short":"Klarenbk","name_medium":"Klarenbeek","slug":"klarenbeek","type":"stoptreinstation"},"category":"netherlands_all"}
{"type":"node","id":"KMR","lat":50.866390228271,"lon":5.8905553817749,"tags":{"name":"Klimmen-Ransdaal","uic":"8400362","name_short":"Klimmen-R","name_medium":"Klimmen-Ransdaal","slug":"klimmen-ransdaal","type":"stoptreinstation"},"category":"netherlands_all"}
{"type":"node","id":"KZ","lat":52.458610534668,"lon":4.8055553436279,"tags":{"name":"Koog aan de Zaan","uic":"8400363","name_short":"Koog Zaan","name_medium":"Koog a.d. Zaan","slug":"koog-aan-de-zaan","type":"stoptreinstation"},"category":"netherlands_all"}
{"type":"node","id":"KMW","lat":52.9028197,"lon":5.4106913,"tags":{"name":"Koudum-Molkwerum","uic":"8400366","name_short":"Koudum-M","name_medium":"Koudum-Molkwerum","slug":"koudum-molkwerum","type":"stoptreinstation"},"category":"netherlands_all"}
{"type":"node","id":"KBD","lat":51.433334350586,"lon":4.1169443130493,"tags":{"name":"Krabbendijke","uic":"8400367","name_short":"Krabbendke","name_medium":"Krabbendijke","slug":"krabbendijke","type":"stoptreinstation"},"category":"netherlands_all"}
{"type":"node","id":"KMA","lat":52.49511,"lon":4.75417,"tags":{"name":"Krommenie-Assendelft","uic":"8400368","name_short":"Krommenie","name_medium":"Krommenie-Ass.","slug":"krommenie-assendelft","type":"stoptreinstation"},"category":"netherlands_all"}
{"type":"node","id":"KW","lat":53.1617362,"lon":6.7220882,"tags":{"name":"Kropswolde","uic":"8400369","name_short":"Kropswolde","name_medium":"Kropswolde","slug":"kropswolde","type":"stoptreinstation"},"category":"netherlands_all"}
{"type":"node","id":"KRG","lat":51.465000152588,"lon":4.0372223854065,"tags":{"name":"Kruiningen-Yerseke","uic":"8400370","name_short":"Kruiningen","name_medium":"Kruiningen-Y.","slug":"kruiningen-yerseke","type":"stoptreinstation"},"category":"netherlands_all"}
{"type":"node","id":"ZLW","lat":51.69111251831,"lon":4.6630554199219,"tags":{"name":"Lage Zwaluwe","uic":"8400382","name_short":"Lage Zwalu","name_medium":"Lage Zwaluwe","slug":"lage-zwaluwe","type":"knooppuntStoptreinstation"},"category":"netherlands_all"}
{"type":"node","id":"LG","lat":50.896389007568,"lon":6.019166469574,"tags":{"name":"Landgraaf","uic":"8400548","name_short":"Landgraaf","name_medium":"Landgraaf","slug":"landgraaf","type":"knooppuntStoptreinstation"},"category":"netherlands_all"}
{"type":"node","id":"LLZM","lat":52.042222,"lon":4.517222,"tags":{"name":"Lansingerland-Zoetermeer","uic":"8400135","name_short":"Lansingerl","name_medium":"Lansingerland","slug":"lansingerland-zoetermeer","type":"stoptreinstation"},"category":"netherlands_all"}
{"type":"node","id":"LDM","lat":51.894721984863,"lon":5.0913887023926,"tags":{"name":"Leerdam","uic":"8400386","name_short":"Leerdam","name_medium":"Leerdam","slug":"leerdam","type":"stoptreinstation"},"category":"netherlands_all"}
{"type":"node","id":"LW","lat":53.195835113525,"lon":5.7922220230103,"tags":{"name":"Leeuwarden","uic":"8400387","name_short":"Leeuwarden","name_medium":"Leeuwarden","slug":"leeuwarden","type":"knooppuntIntercitystation"},"category":"netherlands_all"}
{"type":"node","id":"LWC","lat":53.2021808,"lon":5.8422968,"tags":{"name":"Leeuwarden Camminghaburen","uic":"8400389","name_short":"Camminghab","name_medium":"Camminghaburen","slug":"leeuwarden-camminghaburen","type":"stoptreinstation"},"category":"netherlands_all"}
{"type":"node","id":"LEDN","lat":52.166110992432,"lon":4.4816665649414,"tags":{"name":"Leiden Centraal","uic":"8400390","name_short":"Leiden C","name_medium":"Leiden C.","slug":"leiden-centraal","type":"knooppuntIntercitystation"},"category":"netherlands_all"}
{"type":"node","id":"LDL","lat":52.146945953369,"lon":4.4924998283386,"tags":{"name":"Leiden Lammenschans","uic":"8400384","name_short":"Leiden Lam","name_medium":"Lammenschans","slug":"leiden-lammenschans","type":"stoptreinstation"},"category":"netherlands_all"}
{"type":"node","id":"LLS","lat":52.507778167725,"lon":5.4727778434753,"tags":{"name":"Lelystad Centrum","uic":"8400394","name_short":"Lelystad C","name_medium":"Lelystad C.","slug":"lelystad-centrum","type":"knooppuntIntercitystation"},"category":"netherlands_all"}
{"type":"node","id":"LTV","lat":52.01188,"lon":6.59641,"tags":{"name":"Lichtenvoorde-Groenlo","uic":"8400395","name_short":"Lichtenv-G","name_medium":"Lichtenvoorde-G.","slug":"lichtenvoorde-groenlo","type":"stoptreinstation"},"category":"netherlands_all"}
{"type":"node","id":"LC","lat":52.166667938232,"lon":6.4263887405395,"tags":{"name":"Lochem","uic":"8400399","name_short":"Lochem","name_medium":"Lochem","slug":"lochem","type":"stoptreinstation"},"category":"netherlands_all"}
{"type":"node","id":"LP","lat":53.3347145,"lon":6.7472625,"tags":{"name":"Loppersum","uic":"8400403","name_short":"Loppersum","name_medium":"Loppersum","slug":"loppersum","type":"stoptreinstation"},"category":"netherlands_all"}
{"type":"node","id":"LTN","lat":52.085277557373,"lon":5.6244444847107,"tags":{"name":"Lunteren","uic":"8400405","name_short":"Lunteren","name_medium":"Lunteren","slug":"lunteren","type":"stoptreinstation"},"category":"netherlands_all"}
{"type":"node","id":"MZ","lat":51.304986,"lon":5.629796,"tags":{"name":"Maarheeze","uic":"8400432","name_short":"Maarheeze","name_medium":"Maarheeze","slug":"maarheeze","type":"stoptreinstation"},"category":"netherlands_all"}
{"type":"node","id":"MRN","lat":52.064167022705,"lon":5.3699998855591,"tags":{"name":"Maarn","uic":"8400417","name_short":"Maarn","name_medium":"Maarn","slug":"maarn","type":"knooppuntStoptreinstation"},"category":"netherlands_all"}
{"type":"node","id":"MAS","lat":52.135276794434,"lon":5.0336112976074,"tags":{"name":"Maarssen","uic":"8400419","name_short":"Maarssen","name_medium":"Maarssen","slug":"maarssen","type":"stoptreinstation"},"category":"netherlands_all"}
{"type":"node","id":"MT","lat":50.850276947021,"lon":5.7055554389954,"tags":{"name":"Maastricht","uic":"8400424","name_short":"Maastricht","name_medium":"Maastricht","slug":"maastricht","type":"knooppuntIntercitystation"},"category":"netherlands_all"}
{"type":"node","id":"MTN","lat":50.87087,"lon":5.71774,"tags":{"name":"Maastricht Noord","uic":"8400449","name_short":"Maastr. N","name_medium":"Maastricht Noord","slug":"maastricht-noord","type":"stoptreinstation"},"category":"netherlands_all"}
{"type":"node","id":"MTR","lat":50.838611602783,"lon":5.7172222137451,"tags":{"name":"Maastricht Randwyck","uic":"8400426","name_short":"Randwyck","name_medium":"Randwyck","slug":"maastricht-randwyck","type":"knooppuntStoptreinstation"},"category":"netherlands_all"}
{"type":"node","id":"MG","lat":53.1296368,"lon":5.7131996,"tags":{"name":"Mantgum","uic":"8400427","name_short":"Mantgum","name_medium":"Mantgum","slug":"mantgum","type":"stoptreinstation"},"category":"netherlands_all"}
{"type":"node","id":"MRB","lat":52.50944519043,"lon":6.5752778053284,"tags":{"name":"Mariënberg","uic":"8400428","name_short":"Mariënberg","name_medium":"Mariënberg","slug":"marienberg","type":"knooppuntSneltreinstation"},"category":"netherlands_all"}
{"type":"node","id":"MTH","lat":53.1607232,"lon":6.7402989,"tags":{"name":"Martenshoek","uic":"8400430","name_short":"Martenshk","name_medium":"Martenshoek","slug":"martenshoek","type":"stoptreinstation"},"category":"netherlands_all"}
{"type":"node","id":"MES","lat":50.882879392551,"lon":5.7509994506836,"tags":{"name":"Meerssen","uic":"8400434","name_short":"Meerssen","name_medium":"Meerssen","slug":"meerssen","type":"sneltreinstation"},"category":"netherlands_all"}
{"type":"node","id":"MP","lat":52.69083404541,"lon":6.1975002288818,"tags":{"name":"Meppel","uic":"8400435","name_short":"Meppel","name_medium":"Meppel","slug":"meppel","type":"knooppuntStoptreinstation"},"category":"netherlands_all"}
{"type":"node","id":"MDB","lat":51.494720458984,"lon":3.6172223091126,"tags":{"name":"Middelburg","uic":"8400436","name_short":"Middelburg","name_medium":"Middelburg","slug":"middelburg","type":"stoptreinstation"},"category":"netherlands_all"}
{"type":"node","id":"MMLH","lat":51.766262,"lon":5.879133,"tags":{"name":"Mook-Molenhoek","uic":"8400446","name_short":"Mook-Molen","name_medium":"Molenhoek","slug":"mook-molenhoek","type":"stoptreinstation"},"category":"netherlands_all"}
{"type":"node","id":"NDB","lat":52.280277252197,"lon":5.1569442749023,"tags":{"name":"Naarden-Bussum","uic":"8400452","name_short":"Naarden-Bu","name_medium":"Naarden-Bussum","slug":"naarden-bussum","type":"knooppuntStoptreinstation"},"category":"netherlands_all"}
{"type":"node","id":"NA","lat":52.718612670898,"lon":6.8486108779907,"tags":{"name":"Nieuw Amsterdam","uic":"8400454","name_short":"Nw A'dam","name_medium":"Nw. Amsterdam","slug":"nieuw-amsterdam","type":"sneltreinstation"},"category":"netherlands_all"}
{"type":"node","id":"NVP","lat":52.258888244629,"lon":4.6455554962158,"tags":{"name":"Nieuw Vennep","uic":"8400460","name_short":"Nw Vennep","name_medium":"Nieuw Vennep","slug":"nieuw-vennep","type":"stoptreinstation"},"category":"netherlands_all"}
{"type":"node","id":"NWK","lat":51.965278625488,"lon":4.6169443130493,"tags":{"name":"Nieuwerkerk a/d IJssel","uic":"8400455","name_short":"Nieuwerkrk","name_medium":"Nieuwerkerk","slug":"nieuwerkerk-a-d-ijssel","type":"stoptreinstation"},"category":"netherlands_all"}
{"type":"node","id":"NKK","lat":52.222221374512,"lon":5.4938888549805,"tags":{"name":"Nijkerk","uic":"8400469","name_short":"Nijkerk","name_medium":"Nijkerk","slug":"nijkerk","type":"stoptreinstation"},"category":"netherlands_all"}
{"type":"node","id":"NM","lat":51.843612670898,"lon":5.8522224426269,"tags":{"name":"Nijmegen","uic":"8400470","name_short":"Nijmegen","name_medium":"Nijmegen","slug":"nijmegen","type":"knooppuntIntercitystation"},"category":"netherlands_all"}
{"type":"node","id":"NMD","lat":51.824165344238,"lon":5.7955555915833,"tags":{"name":"Nijmegen Dukenburg","uic":"8400475","name_short":"Dukenburg","name_medium":"Dukenburg","slug":"nijmegen-dukenburg","type":"stoptreinstation"},"category":"netherlands_all"}
{"type":"node","id":"NMGO","lat":51.8273,"lon":5.822722,"tags":{"name":"Nijmegen Goffert","uic":"8400477","name_short":"Goffert","name_medium":"Goffert","slug":"nijmegen-goffert","type":"stoptreinstation"},"category":"netherlands_all"}
{"type":"node","id":"NMH","lat":51.826946258545,"lon":5.8674998283386,"tags":{"name":"Nijmegen Heyendaal","uic":"8400468","name_short":"Heyendaal","name_medium":"Nm Heyendaal","slug":"nijmegen-heyendaal","type":"stoptreinstation"},"category":"netherlands_all"}
{"type":"node","id":"NML","lat":51.863154,"lon":5.859625,"tags":{"name":"Nijmegen Lent","uic":"8400451","name_short":"Lent","name_medium":"Lent","slug":"nijmegen-lent","type":"stoptreinstation"},"category":"netherlands_all"}
{"type":"node","id":"NVD","lat":52.366111,"lon":6.462,"tags":{"name":"Nijverdal","uic":"8400472","name_short":"Nijverdal","name_medium":"Nijverdal","slug":"nijverdal","type":"stoptreinstation"},"category":"netherlands_all"}
{"type":"node","id":"NS","lat":52.370834350586,"lon":5.7852778434753,"tags":{"name":"Nunspeet","uic":"8400466","name_short":"Nunspeet","name_medium":"Nunspeet","slug":"nunspeet","type":"stoptreinstation"},"category":"netherlands_all"}
{"type":"node","id":"NH","lat":50.919445037842,"lon":5.8927779197693,"tags":{"name":"Nuth","uic":"8400467","name_short":"Nuth","name_medium":"Nuth","slug":"nuth","type":"stoptreinstation"},"category":"netherlands_all"}
{"type":"node","id":"OBD","lat":52.67805480957,"lon":4.9072222709656,"tags":{"name":"Obdam","uic":"8400480","name_short":"Obdam","name_medium":"Obdam","slug":"obdam","type":"stoptreinstation"},"category":"netherlands_all"}
{"type":"node","id":"OT","lat":51.582221984863,"lon":5.1941666603088,"tags":{"name":"Oisterwijk","uic":"8400482","name_short":"Oisterwijk","name_medium":"Oisterwijk","slug":"oisterwijk","type":"stoptreinstation"},"category":"netherlands_all"}
{"type":"node","id":"ODZ","lat":52.30638885498,"lon":6.9347224235535,"tags":{"name":"Oldenzaal","uic":"8400483","name_short":"Oldenzaal","name_medium":"Oldenzaal","slug":"oldenzaal","type":"stoptreinstation"},"category":"netherlands_all"}
{"type":"node","id":"OST","lat":52.334720611572,"lon":6.1130557060242,"tags":{"name":"Olst","uic":"8400486","name_short":"Olst","name_medium":"Olst","slug":"olst","type":"intercitystation"},"category":"netherlands_all"}
{"type":"node","id":"OMN","lat":52.50944519043,"lon":6.4158334732056,"tags":{"name":"Ommen","uic":"8400487","name_short":"Ommen","name_medium":"Ommen","slug":"ommen","type":"knooppuntSneltreinstation"},"category":"netherlands_all"}
{"type":"node","id":"OTB","lat":51.994998931885,"lon":5.8400001525879,"tags":{"name":"Oosterbeek","uic":"8400489","name_short":"Oosterbeek","name_medium":"Oosterbeek","slug":"oosterbeek","type":"stoptreinstation"},"category":"netherlands_all"}
{"type":"node","id":"OP","lat":51.9261615,"lon":5.6371145,"tags":{"name":"Opheusden","uic":"8400494","name_short":"Opheusden","name_medium":"Opheusden","slug":"opheusden","type":"stoptreinstation"},"category":"netherlands_all"}
{"type":"node","id":"O","lat":51.765556335449,"lon":5.5322222709656,"tags":{"name":"Oss","uic":"8400495","name_short":"Oss","name_medium":"Oss","slug":"oss","type":"knooppuntIntercitystation"},"category":"netherlands_all"}
{"type":"node","id":"OW","lat":51.758056640625,"lon":5.5055556297302,"tags":{"name":"Oss West","uic":"8400496","name_short":"Oss W","name_medium":"Oss West","slug":"oss-west","type":"stoptreinstation"},"category":"netherlands_all"}
{"type":"node","id":"ODB","lat":51.587776184082,"lon":4.5333333015442,"tags":{"name":"Oudenbosch","uic":"8400498","name_short":"Oudenbosch","name_medium":"Oudenbosch","slug":"oudenbosch","type":"stoptreinstation"},"category":"netherlands_all"}
{"type":"node","id":"OVN","lat":52.391109466553,"lon":4.6061110496521,"tags":{"name":"Overveen","uic":"8400501","name_short":"Overveen","name_medium":"Overveen","slug":"overveen","type":"stoptreinstation"},"category":"netherlands_all"}
{"type":"node","id":"PMR","lat":52.50305557251,"lon":4.9536108970642,"tags":{"name":"Purmerend","uic":"8400508","name_short":"Purmerend","name_medium":"Purmerend","slug":"purmerend","type":"knooppuntStoptreinstation"},"category":"netherlands_all"}
{"type":"node","id":"PMO","lat":52.511390686035,"lon":4.9683332443237,"tags":{"name":"Purmerend Overwhere","uic":"8400506","name_short":"Overwhere","name_medium":"Overwhere","slug":"purmerend-overwhere","type":"stoptreinstation"},"category":"netherlands_all"}
{"type":"node","id":"PMW","lat":52.496590632542,"lon":4.9356293678284,"tags":{"name":"Purmerend Weidevenne","uic":"8400499","name_short":"Weidevenne","name_medium":"Weidevenne","slug":"purmerend-weidevenne","type":"stoptreinstation"},"category":"netherlands_all"}
{"type":"node","id":"PT","lat":52.264999389648,"lon":5.5752778053284,"tags":{"name":"Putten","uic":"8400509","name_short":"Putten","name_medium":"Putten","slug":"putten","type":"stoptreinstation"},"category":"netherlands_all"}
{"type":"node","id":"RAT","lat":52.391666412354,"lon":6.2775001525879,"tags":{"name":"Raalte","uic":"8400513","name_short":"Raalte","name_medium":"Raalte","slug":"raalte","type":"stoptreinstation"},"category":"netherlands_all"}
{"type":"node","id":"RVS","lat":51.794166564941,"lon":5.6358332633972,"tags":{"name":"Ravenstein","uic":"8400515","name_short":"Ravenstein","name_medium":"Ravenstein","slug":"ravenstein","type":"stoptreinstation"},"category":"netherlands_all"}
{"type":"node","id":"RV","lat":51.28321916653,"lon":6.0789585113525,"tags":{"name":"Reuver","uic":"8400518","name_short":"Reuver","name_medium":"Reuver","slug":"reuver","type":"stoptreinstation"},"category":"netherlands_all"}
{"type":"node","id":"RH","lat":52.0101,"lon":6.0314,"tags":{"name":"Rheden","uic":"8400519","name_short":"Rheden","name_medium":"Rheden","slug":"rheden","type":"stoptreinstation"},"category":"netherlands_all"}
{"type":"node","id":"RHN","lat":51.958610534668,"lon":5.5783333778381,"tags":{"name":"Rhenen","uic":"8400517","name_short":"Rhenen","name_medium":"Rhenen","slug":"rhenen","type":"knooppuntStoptreinstation"},"category":"netherlands_all"}
{"type":"node","id":"RSN","lat":52.3122215271,"lon":6.5202779769897,"tags":{"name":"Rijssen","uic":"8400538","name_short":"Rijssen","name_medium":"Rijssen","slug":"rijssen","type":"stoptreinstation"},"category":"netherlands_all"}
{"type":"node","id":"RSW","lat":52.039722442627,"lon":4.3191666603088,"tags":{"name":"Rijswijk","uic":"8400505","name_short":"Rijswijk","name_medium":"Rijswijk","slug":"rijswijk","type":"stoptreinstation"},"category":"netherlands_all"}
{"type":"node","id":"RB","lat":51.422779083252,"lon":4.1611108779907,"tags":{"name":"Rilland-Bath","uic":"8400521","name_short":"Rilland-Ba","name_medium":"Rilland-Bath","slug":"rilland-bath","type":"stoptreinstation"},"category":"netherlands_all"}
{"type":"node","id":"RM","lat":51.193054199219,"lon":5.9941668510437,"tags":{"name":"Roermond","uic":"8400523","name_short":"Roermond","name_medium":"Roermond","slug":"roermond","type":"knooppuntIntercitystation"},"category":"netherlands_all"}
{"type":"node","id":"RD","lat":53.421262,"lon":6.7587,"tags":{"name":"Roodeschool","uic":"8400525","name_short":"Roodeschl","name_medium":"Roodeschool","slug":"roodeschool","type":"stoptreinstation"},"category":"netherlands_all"}
{"type":"node","id":"RSD","lat":51.540279388428,"lon":4.4583334922791,"tags":{"name":"Roosendaal","uic":"8400526","name_short":"Roosendaal","name_medium":"Roosendaal","slug":"roosendaal","type":"knooppuntIntercitystation"},"category":"netherlands_all"}
{"type":"node","id":"RS","lat":51.714721679688,"lon":5.3680553436279,"tags":{"name":"Rosmalen","uic":"8400524","name_short":"Rosmalen","name_medium":"Rosmalen","slug":"rosmalen","type":"stoptreinstation"},"category":"netherlands_all"}
{"type":"node","id":"RTA","lat":51.951946258545,"lon":4.5536112785339,"tags":{"name":"Rotterdam Alexander","uic":"8400507","name_short":"Alexander","name_medium":"Alexander","slug":"rotterdam-alexander","type":"intercitystation"},"category":"netherlands_all"}
{"type":"node","id":"RTB","lat":51.920276641846,"lon":4.4888887405395,"tags":{"name":"Rotterdam Blaak","uic":"8400529","name_short":"Blaak","name_medium":"Blaak","slug":"rotterdam-blaak","type":"stoptreinstation"},"category":"netherlands_all"}
{"type":"node","id":"RTD","lat":51.92499923706,"lon":4.468888759613,"tags":{"name":"Rotterdam Centraal","uic":"8400530","name_short":"Rotterdm C","name_medium":"Rotterdam C.","slug":"rotterdam-centraal","type":"megastation"},"category":"netherlands_all"}
{"type":"node","id":"RLB","lat":51.880001068115,"lon":4.531388759613,"tags":{"name":"Rotterdam Lombardijen","uic":"8400542","name_short":"Lombardije","name_medium":"Lombardijen","slug":"rotterdam-lombardijen","type":"stoptreinstation"},"category":"netherlands_all"}
{"type":"node","id":"RTN","lat":51.942222595215,"lon":4.4816665649414,"tags":{"name":"Rotterdam Noord","uic":"8400531","name_short":"Rotterdm N","name_medium":"Rotterdam Noord","slug":"rotterdam-noord","type":"stoptreinstation"},"category":"netherlands_all"}
{"type":"node","id":"RTST","lat":51.893890380859,"lon":4.5197219848633,"tags":{"name":"Rotterdam Stadion","uic":"8400534","name_short":"R'dam Sta","name_medium":"R'dam Stadion","slug":"rotterdam-stadion","type":"facultatiefStation"},"category":"netherlands_all"}
{"type":"node","id":"RTZ","lat":51.904445648193,"lon":4.5102777481079,"tags":{"name":"Rotterdam Zuid","uic":"8400533","name_short":"Rotterdm Z","name_medium":"Rotterdam Zuid","slug":"rotterdam-zuid","type":"stoptreinstation"},"category":"netherlands_all"}
{"type":"node","id":"RL","lat":52.0810888,"lon":6.4492656,"tags":{"name":"Ruurlo","uic":"8400537","name_short":"Ruurlo","name_medium":"Ruurlo","slug":"ruurlo","type":"stoptreinstation"},"category":"netherlands_all"}
{"type":"node","id":"SPTN","lat":52.43388748169,"lon":4.6325001716614,"tags":{"name":"Santpoort Noord","uic":"8400543","name_short":"Santprt N","name_medium":"Santpoort Noord","slug":"santpoort-noord","type":"stoptreinstation"},"category":"netherlands_all"}
{"type":"node","id":"SPTZ","lat":52.419723510742,"lon":4.6313886642456,"tags":{"name":"Santpoort Zuid","uic":"8400544","name_short":"Santprt Z","name_medium":"Santpoort Zuid","slug":"santpoort-zuid","type":"stoptreinstation"},"category":"netherlands_all"}
{"type":"node","id":"SSH","lat":52.215278,"lon":4.517222,"tags":{"name":"Sassenheim","uic":"8400603","name_short":"Sassenheim","name_medium":"Sassenheim","slug":"sassenheim","type":"stoptreinstation"},"category":"netherlands_all"}
{"type":"node","id":"SWD","lat":53.29113,"lon":6.5404,"tags":{"name":"Sauwerd","uic":"8400547","name_short":"Sauwerd","name_medium":"Sauwerd","slug":"sauwerd","type":"stoptreinstation"},"category":"netherlands_all"}
{"type":"node","id":"SGN","lat":52.784442901611,"lon":4.8052778244019,"tags":{"name":"Schagen","uic":"8400549","name_short":"Schagen","name_medium":"Schagen","slug":"schagen","type":"stoptreinstation"},"category":"netherlands_all"}
{"type":"node","id":"SDA","lat":53.1655362,"lon":6.9777775,"tags":{"name":"Scheemda","uic":"8400551","name_short":"Scheemda","name_medium":"Scheemda","slug":"scheemda","type":"stoptreinstation"},"category":"netherlands_all"}
{"type":"node","id":"SDM","lat":51.921243812803,"lon":4.4089937210083,"tags":{"name":"Schiedam Centrum","uic":"8400553","name_short":"Schiedam C","name_medium":"Schiedam C.","slug":"schiedam-centrum","type":"stoptreinstation"},"category":"netherlands_all"}
{"type":"node","id":"SOG","lat":50.856388092041,"lon":5.8722224235535,"tags":{"name":"Schin op Geul","uic":"8400555","name_short":"Schin op G","name_medium":"Schin op Geul","slug":"schin-op-geul","type":"stoptreinstation"},"category":"netherlands_all"}
{"type":"node","id":"SN","lat":50.939167022705,"lon":5.8744444847107,"tags":{"name":"Schinnen","uic":"8400554","name_short":"Schinnen","name_medium":"Schinnen","slug":"schinnen","type":"stoptreinstation"},"category":"netherlands_all"}
{"type":"node","id":"SHL","lat":52.30944442749,"lon":4.7619442939758,"tags":{"name":"Schiphol Airport","uic":"8400561","name_short":"Schiphol","name_medium":"Schiphol Airport","slug":"schiphol-airport","type":"megastation"},"category":"netherlands_all"}
{"type":"node","id":"STD","lat":51.001667022705,"lon":5.8586111068726,"tags":{"name":"Sittard","uic":"8400564","name_short":"Sittard","name_medium":"Sittard","slug":"sittard","type":"knooppuntIntercitystation"},"category":"netherlands_all"}
{"type":"node","id":"SDT","lat":51.829723358154,"lon":4.7783331871033,"tags":{"name":"Sliedrecht","uic":"8400565","name_short":"Sliedrecht","name_medium":"Sliedrecht","slug":"sliedrecht","type":"stoptreinstation"},"category":"netherlands_all"}
{"type":"node","id":"SDTB","lat":51.829722,"lon":4.743333,"tags":{"name":"Sliedrecht Baanhoek","uic":"8400497","name_short":"Baanhoek","name_medium":"Baanhoek","slug":"sliedrecht-baanhoek","type":"stoptreinstation"},"category":"netherlands_all"}
{"type":"node","id":"SK","lat":53.0328688,"lon":5.6523969,"tags":{"name":"Sneek","uic":"8400566","name_short":"Sneek","name_medium":"Sneek","slug":"sneek","type":"knooppuntStoptreinstation"},"category":"netherlands_all"}
{"type":"node","id":"SKND","lat":53.0409319,"lon":5.6631808,"tags":{"name":"Sneek Noord","uic":"8400574","name_short":"Sneek N","name_medium":"Sneek Noord","slug":"sneek-noord","type":"stoptreinstation"},"category":"netherlands_all"}
{"type":"node","id":"ST","lat":52.173332214355,"lon":5.3099999427795,"tags":{"name":"Soest","uic":"8400567","name_short":"Soest","name_medium":"Soest","slug":"soest","type":"knooppuntStoptreinstation"},"category":"netherlands_all"}
{"type":"node","id":"STZ","lat":52.165279388428,"lon":5.3030557632446,"tags":{"name":"Soest Zuid","uic":"8400571","name_short":"Soest Z","name_medium":"Soest Zuid","slug":"soest-zuid","type":"stoptreinstation"},"category":"netherlands_all"}
{"type":"node","id":"SD","lat":52.183612823486,"lon":5.3000001907349,"tags":{"name":"Soestdijk","uic":"8400569","name_short":"Soestdijk","name_medium":"Soestdijk","slug":"soestdijk","type":"stoptreinstation"},"category":"netherlands_all"}
{"type":"node","id":"SBK","lat":50.94327,"lon":5.850529,"tags":{"name":"Spaubeek","uic":"8400572","name_short":"Spaubeek","name_medium":"Spaubeek","slug":"spaubeek","type":"stoptreinstation"},"category":"netherlands_all"}
{"type":"node","id":"STV","lat":52.8865535,"lon":5.3600212,"tags":{"name":"Stavoren","uic":"8400575","name_short":"Stavoren","name_medium":"Stavoren","slug":"stavoren","type":"stoptreinstation"},"category":"netherlands_all"}
{"type":"node","id":"STM","lat":53.3262092,"lon":6.6875551,"tags":{"name":"Stedum","uic":"8400576","name_short":"Stedum","name_medium":"Stedum","slug":"stedum","type":"stoptreinstation"},"category":"netherlands_all"}
{"type":"node","id":"SWK","lat":52.791510992432,"lon":6.1145557632446,"tags":{"name":"Steenwijk","uic":"8400578","name_short":"Steenwijk","name_medium":"Steenwijk","slug":"steenwijk","type":"intercitystation"},"category":"netherlands_all"}
{"type":"node","id":"SRN","lat":51.061389923096,"lon":5.8630557060242,"tags":{"name":"Susteren","uic":"8400582","name_short":"Susteren","name_medium":"Susteren","slug":"susteren","type":"stoptreinstation"},"category":"netherlands_all"}
{"type":"node","id":"SM","lat":51.23582,"lon":6.03228,"tags":{"name":"Swalmen","uic":"8400583","name_short":"Swalmen","name_medium":"Swalmen","slug":"swalmen","type":"stoptreinstation"},"category":"netherlands_all"}
{"type":"node","id":"TG","lat":51.33894,"lon":6.14253,"tags":{"name":"Tegelen","uic":"8400591","name_short":"Tegelen","name_medium":"Tegelen","slug":"tegelen","type":"stoptreinstation"},"category":"netherlands_all"}
{"type":"node","id":"TBG","lat":51.9224549,"lon":6.3642466,"tags":{"name":"Terborg","uic":"8400592","name_short":"Terborg","name_medium":"Terborg","slug":"terborg","type":"stoptreinstation"},"category":"netherlands_all"}
{"type":"node","id":"TL","lat":51.889446258545,"lon":5.4222221374512,"tags":{"name":"Tiel","uic":"8400596","name_short":"Tiel","name_medium":"Tiel","slug":"tiel","type":"knooppuntStoptreinstation"},"category":"netherlands_all"}
{"type":"node","id":"TPSW","lat":51.873889923096,"lon":5.39222240448,"tags":{"name":"Tiel Passewaaij","uic":"8400600","name_short":"Passewaaij","name_medium":"Passewaaij","slug":"tiel-passewaaij","type":"stoptreinstation"},"category":"netherlands_all"}
{"type":"node","id":"TB","lat":51.560554504395,"lon":5.0836110115051,"tags":{"name":"Tilburg","uic":"8400597","name_short":"Tilburg","name_medium":"Tilburg","slug":"tilburg","type":"knooppuntIntercitystation"},"category":"netherlands_all"}
{"type":"node","id":"TBR","lat":51.573612213135,"lon":4.9944443702698,"tags":{"name":"Tilburg Reeshof","uic":"8400598","name_short":"Reeshof","name_medium":"Reeshof","slug":"tilburg-reeshof","type":"stoptreinstation"},"category":"netherlands_all"}
{"type":"node","id":"TBU","lat":51.564985,"lon":5.051778,"tags":{"name":"Tilburg Universiteit","uic":"8400594","name_short":"Tilburg Un","name_medium":"Tilburg Uni.","slug":"tilburg-universiteit","type":"stoptreinstation"},"category":"netherlands_all"}
{"type":"node","id":"TWL","lat":52.237777709961,"lon":6.0986108779907,"tags":{"name":"Twello","uic":"8400599","name_short":"Twello","name_medium":"Twello","slug":"twello","type":"stoptreinstation"},"category":"netherlands_all"}
{"type":"node","id":"UTG","lat":52.521667480469,"lon":4.7016668319702,"tags":{"name":"Uitgeest","uic":"8400615","name_short":"Uitgeest","name_medium":"Uitgeest","slug":"uitgeest","type":"knooppuntStoptreinstation"},"category":"netherlands_all"}
{"type":"node","id":"UHZ","lat":53.4099568,"lon":6.6748869,"tags":{"name":"Uithuizen","uic":"8400617","name_short":"Uithuizen","name_medium":"Uithuizen","slug":"uithuizen","type":"stoptreinstation"},"category":"netherlands_all"}
{"type":"node","id":"UHM","lat":53.4145845,"lon":6.7202975,"tags":{"name":"Uithuizermeeden","uic":"8400618","name_short":"Uithuizerm","name_medium":"Uithuizermeeden","slug":"uithuizermeeden","type":"stoptreinstation"},"category":"netherlands_all"}
{"type":"node","id":"UST","lat":53.4014742,"lon":6.6093776,"tags":{"name":"Usquert","uic":"8400619","name_short":"Usquert","name_medium":"Usquert","slug":"usquert","type":"stoptreinstation"},"category":"netherlands_all"}
{"type":"node","id":"UT","lat":52.088890075684,"lon":5.1102776527405,"tags":{"name":"Utrecht Centraal","uic":"8400621","name_short":"Utrecht C","name_medium":"Utrecht C.","slug":"utrecht-centraal","type":"megastation"},"category":"netherlands_all"}
{"type":"node","id":"UTLR","lat":52.09896,"lon":5.06523,"tags":{"name":"Utrecht Leidsche Rijn","uic":"8400607","name_short":"LeidscheRn","name_medium":"Leidsche Rijn","slug":"utrecht-leidsche-rijn","type":"stoptreinstation"},"category":"netherlands_all"}
{"type":"node","id":"UTLN","lat":52.06555557251,"lon":5.144166469574,"tags":{"name":"Utrecht Lunetten","uic":"8400623","name_short":"Lunetten","name_medium":"Lunetten","slug":"utrecht-lunetten","type":"stoptreinstation"},"category":"netherlands_all"}
{"type":"node","id":"UTM","lat":52.087776184082,"lon":5.1313886642456,"tags":{"name":"Utrecht Maliebaan","uic":"8400624","name_short":"Maliebaan","name_medium":"Maliebaan","slug":"utrecht-maliebaan","type":"stoptreinstation"},"category":"netherlands_all"}
{"type":"node","id":"UTO","lat":52.110000610352,"lon":5.1247220039368,"tags":{"name":"Utrecht Overvecht","uic":"8400620","name_short":"Overvecht","name_medium":"Overvecht","slug":"utrecht-overvecht","type":"knooppuntStoptreinstation"},"category":"netherlands_all"}
{"type":"node","id":"UTT","lat":52.1000753,"lon":5.0439547,"tags":{"name":"Utrecht Terwijde","uic":"8400614","name_short":"Terwijde","name_medium":"Terwijde","slug":"utrecht-terwijde","type":"stoptreinstation"},"category":"netherlands_all"}
{"type":"node","id":"UTVR","lat":52.078889,"lon":5.121667,"tags":{"name":"Utrecht Vaartsche Rijn","uic":"8400606","name_short":"VaartscheR","name_medium":"Vaartsche Rijn","slug":"utrecht-vaartsche-rijn","type":"knooppuntStoptreinstation"},"category":"netherlands_all"}
{"type":"node","id":"UTZL","lat":52.103055,"lon":5.09,"tags":{"name":"Utrecht Zuilen","uic":"8400613","name_short":"Zuilen","name_medium":"Zuilen","slug":"utrecht-zuilen","type":"stoptreinstation"},"category":"netherlands_all"}
{"type":"node","id":"VK","lat":50.869720458984,"lon":5.8322219848633,"tags":{"name":"Valkenburg","uic":"8400632","name_short":"Valkenburg","name_medium":"Valkenburg","slug":"valkenburg","type":"knooppuntSneltreinstation"},"category":"netherlands_all"}
{"type":"node","id":"VSV","lat":51.937257,"lon":6.458839,"tags":{"name":"Varsseveld","uic":"8400635","name_short":"Varsseveld","name_medium":"Varsseveld","slug":"varsseveld","type":"stoptreinstation"},"category":"netherlands_all"}
{"type":"node","id":"VDM","lat":53.10324,"lon":6.88475,"tags":{"name":"Veendam","uic":"8400636","name_short":"Veendam","name_medium":"Veendam","slug":"veendam","type":"knooppuntStoptreinstation"},"category":"netherlands_all"}
{"type":"node","id":"VNDC","lat":52.020000457764,"lon":5.548611164093,"tags":{"name":"Veenendaal Centrum","uic":"8400627","name_short":"Veenendl C","name_medium":"Veenendaal C.","slug":"veenendaal-centrum","type":"knooppuntStoptreinstation"},"category":"netherlands_all"}
{"type":"node","id":"VNDW","lat":52.028057098389,"lon":5.531388759613,"tags":{"name":"Veenendaal West","uic":"8400628","name_short":"Veenendl W","name_medium":"Veenendaal West","slug":"veenendaal-west","type":"stoptreinstation"},"category":"netherlands_all"}
{"type":"node","id":"KLP","lat":52.045833587646,"lon":5.5738887786865,"tags":{"name":"Veenendaal-De Klomp","uic":"8400637","name_short":"De Klomp","name_medium":"De Klomp","slug":"veenendaal-de-klomp","type":"stoptreinstation"},"category":"netherlands_all"}
{"type":"node","id":"VP","lat":51.994720458984,"lon":5.9802780151367,"tags":{"name":"Velp","uic":"8400640","name_short":"Velp","name_medium":"Velp","slug":"velp","type":"stoptreinstation"},"category":"netherlands_all"}
{"type":"node","id":"VL","lat":51.363609313965,"lon":6.1727776527405,"tags":{"name":"Venlo","uic":"8400644","name_short":"Venlo","name_medium":"Venlo","slug":"venlo","type":"knooppuntIntercitystation"},"category":"netherlands_all"}
{"type":"node","id":"VRY","lat":51.526568099007,"lon":6.0141777992248,"tags":{"name":"Venray","uic":"8400646","name_short":"Venray","name_medium":"Venray","slug":"venray","type":"knooppuntStoptreinstation"},"category":"netherlands_all"}
{"type":"node","id":"VLB","lat":51.59193,"lon":5.99714,"tags":{"name":"Vierlingsbeek","uic":"8400647","name_short":"Vierlingsb","name_medium":"Vierlingsbeek","slug":"vierlingsbeek","type":"stoptreinstation"},"category":"netherlands_all"}
{"type":"node","id":"VTN","lat":52.103056,"lon":5.007404,"tags":{"name":"Vleuten","uic":"8400651","name_short":"Vleuten","name_medium":"Vleuten","slug":"vleuten","type":"stoptreinstation"},"category":"netherlands_all"}
{"type":"node","id":"VS","lat":51.445835113525,"lon":3.5952777862549,"tags":{"name":"Vlissingen","uic":"8400652","name_short":"Vlissingen","name_medium":"Vlissingen","slug":"vlissingen","type":"knooppuntIntercitystation"},"category":"netherlands_all"}
{"type":"node","id":"VSS","lat":51.464721679688,"lon":3.5952777862549,"tags":{"name":"Vlissingen Souburg","uic":"8400653","name_short":"Souburg","name_medium":"Souburg","slug":"vlissingen-souburg","type":"stoptreinstation"},"category":"netherlands_all"}
{"type":"node","id":"VDL","lat":50.887222290039,"lon":5.9302778244019,"tags":{"name":"Voerendaal","uic":"8400656","name_short":"Voerendaal","name_medium":"Voerendaal","slug":"voerendaal","type":"stoptreinstation"},"category":"netherlands_all"}
{"type":"node","id":"VB","lat":52.066665649414,"lon":4.3594446182251,"tags":{"name":"Voorburg","uic":"8400658","name_short":"Voorburg","name_medium":"Voorburg","slug":"voorburg","type":"stoptreinstation"},"category":"netherlands_all"}
{"type":"node","id":"VH","lat":52.224445343018,"lon":4.4844446182251,"tags":{"name":"Voorhout","uic":"8400655","name_short":"Voorhout","name_medium":"Voorhout","slug":"voorhout","type":"stoptreinstation"},"category":"netherlands_all"}
{"type":"node","id":"VST","lat":52.1252784729,"lon":4.4324998855591,"tags":{"name":"Voorschoten","uic":"8400659","name_short":"Voorschtn","name_medium":"Voorschoten","slug":"voorschoten","type":"stoptreinstation"},"category":"netherlands_all"}
{"type":"node","id":"VEM","lat":52.157501220703,"lon":6.1436109542847,"tags":{"name":"Voorst-Empe","uic":"8400668","name_short":"Voorst-E","name_medium":"Voorst-Empe","slug":"voorst-empe","type":"stoptreinstation"},"category":"netherlands_all"}
{"type":"node","id":"VD","lat":52.1071949,"lon":6.3170457,"tags":{"name":"Vorden","uic":"8400661","name_short":"Vorden","name_medium":"Vorden","slug":"vorden","type":"stoptreinstation"},"category":"netherlands_all"}
{"type":"node","id":"VZ","lat":52.40203,"lon":6.60041,"tags":{"name":"Vriezenveen","uic":"8400664","name_short":"Vriezenvn","name_medium":"Vriezenveen","slug":"vriezenveen","type":"stoptreinstation"},"category":"netherlands_all"}
{"type":"node","id":"VHP","lat":52.4571921,"lon":6.5696679,"tags":{"name":"Vroomshoop","uic":"8400666","name_short":"Vroomshoop","name_medium":"Vroomshoop","slug":"vroomshoop","type":"stoptreinstation"},"category":"netherlands_all"}
{"type":"node","id":"VG","lat":51.655555725098,"lon":5.2919445037842,"tags":{"name":"Vught","uic":"8400667","name_short":"Vught","name_medium":"Vught","slug":"vught","type":"stoptreinstation"},"category":"netherlands_all"}
{"type":"node","id":"WAD","lat":52.044166564941,"lon":4.6497220993042,"tags":{"name":"Waddinxveen","uic":"8400675","name_short":"Waddinxvn","name_medium":"Waddinxveen","slug":"waddinxveen","type":"stoptreinstation"},"category":"netherlands_all"}
{"type":"node","id":"WADN","lat":52.055000305176,"lon":4.6483335494995,"tags":{"name":"Waddinxveen Noord","uic":"8400674","name_short":"Waddinxv N","name_medium":"Waddinxveen N.","slug":"waddinxveen-noord","type":"stoptreinstation"},"category":"netherlands_all"}
{"type":"node","id":"WADT","lat":52.02725,"lon":4.6491,"tags":{"name":"Waddinxveen Triangel","uic":"8400677","name_short":"Triangel","name_medium":"Triangel","slug":"waddinxveen-triangel","type":"stoptreinstation"},"category":"netherlands_all"}
{"type":"node","id":"WFM","lat":53.3908431,"lon":6.5671364,"tags":{"name":"Warffum","uic":"8400679","name_short":"Warffum","name_medium":"Warffum","slug":"warffum","type":"stoptreinstation"},"category":"netherlands_all"}
{"type":"node","id":"WT","lat":51.248611450195,"lon":5.7036108970642,"tags":{"name":"Weert","uic":"8400684","name_short":"Weert","name_medium":"Weert","slug":"weert","type":"intercitystation"},"category":"netherlands_all"}
{"type":"node","id":"WP","lat":52.3127784729,"lon":5.0430555343628,"tags":{"name":"Weesp","uic":"8400685","name_short":"Weesp","name_medium":"Weesp","slug":"weesp","type":"knooppuntStoptreinstation"},"category":"netherlands_all"}
{"type":"node","id":"WL","lat":51.9578065,"lon":6.213844,"tags":{"name":"Wehl","uic":"8400686","name_short":"Wehl","name_medium":"Wehl","slug":"wehl","type":"stoptreinstation"},"category":"netherlands_all"}
{"type":"node","id":"WTV","lat":51.96286,"lon":5.9695,"tags":{"name":"Westervoort","uic":"8400688","name_short":"Westervrt","name_medium":"Westervoort","slug":"westervoort","type":"stoptreinstation"},"category":"netherlands_all"}
{"type":"node","id":"WZ","lat":52.454166412354,"lon":6.0025000572205,"tags":{"name":"Wezep","uic":"8400690","name_short":"Wezep","name_medium":"Wezep","slug":"wezep","type":"stoptreinstation"},"category":"netherlands_all"}
{"type":"node","id":"WDN","lat":52.361389160156,"lon":6.5916666984558,"tags":{"name":"Wierden","uic":"8400691","name_short":"Wierden","name_medium":"Wierden","slug":"wierden","type":"knooppuntStoptreinstation"},"category":"netherlands_all"}
{"type":"node","id":"WC","lat":51.811668395996,"lon":5.730833530426,"tags":{"name":"Wijchen","uic":"8400710","name_short":"Wijchen","name_medium":"Wijchen","slug":"wijchen","type":"stoptreinstation"},"category":"netherlands_all"}
{"type":"node","id":"WH","lat":52.390277862549,"lon":6.1405553817749,"tags":{"name":"Wijhe","uic":"8400711","name_short":"Wijhe","name_medium":"Wijhe","slug":"wijhe","type":"intercitystation"},"category":"netherlands_all"}
{"type":"node","id":"WS","lat":53.1392377,"lon":7.035101,"tags":{"name":"Winschoten","uic":"8400696","name_short":"Winschoten","name_medium":"Winschoten","slug":"winschoten","type":"knooppuntStoptreinstation"},"category":"netherlands_all"}
{"type":"node","id":"WSM","lat":53.3300994,"lon":6.5202905,"tags":{"name":"Winsum","uic":"8400697","name_short":"Winsum","name_medium":"Winsum","slug":"winsum","type":"stoptreinstation"},"category":"netherlands_all"}
{"type":"node","id":"WW","lat":51.9677307,"lon":6.7155181,"tags":{"name":"Winterswijk","uic":"8400698","name_short":"Winterswk","name_medium":"Winterswijk","slug":"winterswijk","type":"knooppuntStoptreinstation"},"category":"netherlands_all"}
{"type":"node","id":"WWW","lat":51.97453,"lon":6.70417,"tags":{"name":"Winterswijk West","uic":"8400700","name_short":"Wintersw W","name_medium":"Winterswijk West","slug":"winterswijk-west","type":"stoptreinstation"},"category":"netherlands_all"}
{"type":"node","id":"WD","lat":52.084999084473,"lon":4.8936109542847,"tags":{"name":"Woerden","uic":"8400702","name_short":"Woerden","name_medium":"Woerden","slug":"woerden","type":"knooppuntStoptreinstation"},"category":"netherlands_all"}
{"type":"node","id":"WF","lat":52.005554199219,"lon":5.7936110496521,"tags":{"name":"Wolfheze","uic":"8400704","name_short":"Wolfheze","name_medium":"Wolfheze","slug":"wolfheze","type":"stoptreinstation"},"category":"netherlands_all"}
{"type":"node","id":"WV","lat":52.880832672119,"lon":6.0036110877991,"tags":{"name":"Wolvega","uic":"8400705","name_short":"Wolvega","name_medium":"Wolvega","slug":"wolvega","type":"stoptreinstation"},"category":"netherlands_all"}
{"type":"node","id":"WK","lat":52.9724864,"lon":5.4564285,"tags":{"name":"Workum","uic":"8400706","name_short":"Workum","name_medium":"Workum","slug":"workum","type":"stoptreinstation"},"category":"netherlands_all"}
{"type":"node","id":"WM","lat":52.489166259766,"lon":4.7922220230103,"tags":{"name":"Wormerveer","uic":"8400707","name_short":"Wormerveer","name_medium":"Wormerveer","slug":"wormerveer","type":"stoptreinstation"},"category":"netherlands_all"}
{"type":"node","id":"ZD","lat":52.438888549805,"lon":4.8136110305786,"tags":{"name":"Zaandam","uic":"8400731","name_short":"Zaandam","name_medium":"Zaandam","slug":"zaandam","type":"knooppuntIntercitystation"},"category":"netherlands_all"}
{"type":"node","id":"ZDK","lat":52.456665039062,"lon":4.8202776908875,"tags":{"name":"Zaandam Kogerveld","uic":"8400728","name_short":"Kogerveld","name_medium":"Kogerveld","slug":"zaandam-kogerveld","type":"stoptreinstation"},"category":"netherlands_all"}
{"type":"node","id":"ZZS","lat":52.469165802002,"lon":4.8049998283386,"tags":{"name":"Zaandijk Zaanse Schans","uic":"8400364","name_short":"Zaanse S.","name_medium":"Zaanse Schans","slug":"zaandijk-zaanse-schans","type":"knooppuntStoptreinstation"},"category":"netherlands_all"}
{"type":"node","id":"ZBM","lat":51.80888748169,"lon":5.2633333206177,"tags":{"name":"Zaltbommel","uic":"8400732","name_short":"Zaltbommel","name_medium":"Zaltbommel","slug":"zaltbommel","type":"stoptreinstation"},"category":"netherlands_all"}
{"type":"node","id":"ZVT","lat":52.3752784729,"lon":4.5327777862549,"tags":{"name":"Zandvoort aan Zee","uic":"8400733","name_short":"Zandvoort","name_medium":"Zandvoort","slug":"zandvoort-aan-zee","type":"stoptreinstation"},"category":"netherlands_all"}
{"type":"node","id":"ZA","lat":51.920056,"lon":5.7228408,"tags":{"name":"Zetten-Andelst","uic":"8400734","name_short":"Zetten-And","name_medium":"Zetten-Andelst","slug":"zetten-andelst","type":"stoptreinstation"},"category":"netherlands_all"}
{"type":"node","id":"ZV","lat":51.923053741455,"lon":6.0719442367554,"tags":{"name":"Zevenaar","uic":"8400735","name_short":"Zevenaar","name_medium":"Zevenaar","slug":"zevenaar","type":"knooppuntStoptreinstation"},"category":"netherlands_all"}
{"type":"node","id":"ZVB","lat":51.64042,"lon":4.60904,"tags":{"name":"Zevenbergen","uic":"8400737","name_short":"Zevenbergn","name_medium":"Zevenbergen","slug":"zevenbergen","type":"stoptreinstation"},"category":"netherlands_all"}
{"type":"node","id":"ZTM","lat":52.047500610352,"lon":4.4772224426269,"tags":{"name":"Zoetermeer","uic":"8400741","name_short":"Zoetermeer","name_medium":"Zoetermeer","slug":"zoetermeer","type":"knooppuntStoptreinstation"},"category":"netherlands_all"}
{"type":"node","id":"ZTMO","lat":52.046390533447,"lon":4.4927778244019,"tags":{"name":"Zoetermeer Oost","uic":"8400740","name_short":"Zoetermr O","name_medium":"Zoetermeer Oost","slug":"zoetermeer-oost","type":"stoptreinstation"},"category":"netherlands_all"}
{"type":"node","id":"ZB","lat":53.159612280006,"lon":6.8679141998291,"tags":{"name":"Zuidbroek","uic":"8400742","name_short":"Zuidbroek","name_medium":"Zuidbroek","slug":"zuidbroek","type":"knooppuntStoptreinstation"},"category":"netherlands_all"}
{"type":"node","id":"ZH","lat":53.2486292,"lon":6.4062361,"tags":{"name":"Zuidhorn","uic":"8400743","name_short":"Zuidhorn","name_medium":"Zuidhorn","slug":"zuidhorn","type":"stoptreinstation"},"category":"netherlands_all"}
{"type":"node","id":"ZP","lat":52.145278930664,"lon":6.1941666603088,"tags":{"name":"Zutphen","uic":"8400744","name_short":"Zutphen","name_medium":"Zutphen","slug":"zutphen","type":"knooppuntIntercitystation"},"category":"netherlands_all"}
{"type":"node","id":"ZWD","lat":51.814998626709,"lon":4.6416668891907,"tags":{"name":"Zwijndrecht","uic":"8400752","name_short":"Zwijndrcht","name_medium":"Zwijndrecht","slug":"zwijndrecht","type":"stoptreinstation"},"category":"netherlands_all"}
{"type":"node","id":"ZL","lat":52.504722595215,"lon":6.0919442176819,"tags":{"name":"Zwolle","uic":"8400747","name_short":"Zwolle","name_medium":"Zwolle","slug":"zwolle","type":"knooppuntIntercitystation"},"category":"netherlands_all"}
{"type":"node","id":"ZLSH","lat":52.52764,"lon":6.05146,"tags":{"name":"Zwolle Stadshagen","uic":"8400746","name_short":"Stadshagen","name_medium":"Stadshagen","slug":"zwolle-stadshagen","type":"stoptreinstation"},"category":"netherlands_all"}
