{"type":"node","id":"S05186","lat":44.6033596,"lon":10.8745212,"tags":{"name":"Baggiovara Ospedale","operator":"Ferrovie Emilia Romagna","line":"Modena-Sassuolo","osm_id":"2046127897"},"category":"italy_fer"}
{"type":"node","id":"S05185","lat":44.5992374,"lon":10.8620244,"tags":{"name":"Baggiovara","operator":"Ferrovie Emilia Romagna","line":"Modena-Sassuolo","osm_id":"973853565"},"category":"italy_fer"}
{"type":"node","id":"S05946","lat":44.7611229,"lon":10.6755311,"tags":{"name":"Bagnolo in Piano","operator":"Ferrovie Emilia Romagna","line":"Reggio Emilia-Guastalla","osm_id":"3404462568"},"category":"italy_fer"}
{"type":"node","id":"S05945","lat":44.7710473,"lon":10.6804193,"tags":{"name":"Bagnolo Soave","operator":"Ferrovie Emilia Romagna","line":"Reggio Emilia-Guastalla","osm_id":"3404463362"},"category":"italy_fer"}
{"type":"node","id":"S05975","lat":44.5086667,"lon":11.0781468,"tags":{"name":"Bazzano (Valsamoggia)","operator":"Ferrovie Emilia Romagna","line":"Bologna-Vignola","osm_id":"614572008"},"category":"italy_fer"}
{"type":"node","id":"S05928","lat":44.6728521,"lon":10.4780024,"tags":{"name":"Bibbiano Fossa","operator":"Ferrovie Emilia Romagna","line":"Reggio Emilia-Ciano d'Enza","osm_id":"5435475785"},"category":"italy_fer"}
{"type":"node","id":"S05926","lat":44.6603234,"lon":10.465371,"tags":{"name":"Bibbiano Via Monti","operator":"Ferrovie Emilia Romagna","line":"Reggio Emilia-Ciano d'Enza","osm_id":"3404122442"},"category":"italy_fer"}
{"type":"node","id":"S05927","lat":44.6640505,"lon":10.4692378,"tags":{"name":"Bibbiano","operator":"Ferrovie Emilia Romagna","line":"Reggio Emilia-Ciano d'Enza","osm_id":"3404119064"},"category":"italy_fer"}
{"type":"node","id":"S05930","lat":44.6945793,"lon":10.4984759,"tags":{"name":"Bivio Barco","operator":"Ferrovie Emilia Romagna","line":"Reggio Emilia-Ciano d'Enza","osm_id":"3404113576"},"category":"italy_fer"}
{"type":"node","id":"S05989","lat":44.4940116,"lon":11.3737469,"tags":{"name":"Bologna Rimesse","operator":"Ferrovie Emilia Romagna","line":"Bologna-Portomaggiore","osm_id":"252156263"},"category":"italy_fer"}
{"type":"node","id":"S05019","lat":44.4982873,"lon":11.4093454,"tags":{"name":"Bologna Roveri","operator":"Ferrovie Emilia Romagna","line":"Bologna-Portomaggiore","osm_id":"1137774426"},"category":"italy_fer"}
{"type":"node","id":"S05990","lat":44.4958115,"lon":11.372962,"tags":{"name":"Bologna S.Rita","operator":"Ferrovie Emilia Romagna","line":"Bologna-Portomaggiore","osm_id":"252156240"},"category":"italy_fer"}
{"type":"node","id":"S05991","lat":44.4967139,"lon":11.3924994,"tags":{"name":"Bologna Via Larga","operator":"Ferrovie Emilia Romagna","line":"Bologna-Portomaggiore","osm_id":"256372156"},"category":"italy_fer"}
{"type":"node","id":"S05016","lat":44.4978394,"lon":11.359759,"tags":{"name":"Bologna Zanolini","operator":"Ferrovie Emilia Romagna","line":"Bologna-Portomaggiore","osm_id":"11107639522"},"category":"italy_fer"}
{"type":"node","id":"S05165","lat":44.9018692,"lon":11.4113144,"tags":{"name":"Bondeno","operator":"Ferrovie Emilia Romagna","line":"Suzzara-Ferrara","osm_id":"990106334"},"category":"italy_fer"}
{"type":"node","id":"S05963","lat":44.9034046,"lon":10.5536116,"tags":{"name":"Boretto","operator":"Ferrovie Emilia Romagna","line":"Parma-Suzzara","osm_id":"2356504092"},"category":"italy_fer"}
{"type":"node","id":"S05964","lat":44.8979996,"lon":10.5196762,"tags":{"name":"Brescello Viadana","operator":"Ferrovie Emilia Romagna","line":"Parma-Suzzara","osm_id":"1769883399"},"category":"italy_fer"}
{"type":"node","id":"S05017","lat":44.5330286,"lon":11.5286135,"tags":{"name":"Budrio","operator":"Ferrovie Emilia Romagna","line":"Bologna-Portomaggiore","osm_id":"253814514"},"category":"italy_fer"}
{"type":"node","id":"S05967","lat":44.4814884,"lon":11.2629485,"tags":{"name":"Casalecchio Ceretolo","operator":"Ferrovie Emilia Romagna","line":"Bologna-Vignola","osm_id":"255886641"},"category":"italy_fer"}
{"type":"node","id":"S05968","lat":44.4846131,"lon":11.2477559,"tags":{"name":"Casalecchio Palasport","operator":"Ferrovie Emilia Romagna","line":"Bologna-Vignola","osm_id":"255886651"},"category":"italy_fer"}
{"type":"node","id":"S05982","lat":44.5844148,"lon":10.7374935,"tags":{"name":"Casalgrande","operator":"Ferrovie Emilia Romagna","line":"Reggio Emilia-Sassuolo","osm_id":"484479056"},"category":"italy_fer"}
{"type":"node","id":"S05184","lat":44.5937414,"lon":10.8567186,"tags":{"name":"Casinalbo","operator":"Ferrovie Emilia Romagna","line":"Modena-Sassuolo","osm_id":"368183117"},"category":"italy_fer"}
{"type":"node","id":"S05994","lat":44.5035096,"lon":11.4580515,"tags":{"name":"Castenaso Stellina","operator":"Ferrovie Emilia Romagna","line":"Bologna-Portomaggiore","osm_id":"257062663"},"category":"italy_fer"}
{"type":"node","id":"S05995","lat":44.5035096,"lon":11.4580515,"tags":{"name":"Castenaso","operator":"Ferrovie Emilia Romagna","line":"Bologna-Portomaggiore","osm_id":"257062663"},"category":"italy_fer"}
{"type":"node","id":"S05931","lat":44.6980073,"lon":10.530798,"tags":{"name":"Cavriago S.Nicolo'","operator":"Ferrovie Emilia Romagna","line":"Reggio Emilia-Ciano d'Enza","osm_id":"1575733112"},"category":"italy_fer"}
{"type":"node","id":"S05932","lat":44.6980073,"lon":10.530798,"tags":{"name":"Cavriago","operator":"Ferrovie Emilia Romagna","line":"Reggio Emilia-Ciano d'Enza","osm_id":"1575733112"},"category":"italy_fer"}
{"type":"node","id":"S05983","lat":44.5973991,"lon":10.7075106,"tags":{"name":"Chiozza","operator":"Ferrovie Emilia Romagna","line":"Reggio Emilia-Sassuolo","osm_id":"484760274"},"category":"italy_fer"}
{"type":"node","id":"S05920","lat":44.8280757,"lon":10.3937971,"tags":{"name":"Chiozzola","operator":"Ferrovie Emilia Romagna","line":"Parma-Suzzara","osm_id":"12294175810"},"category":"italy_fer"}
{"type":"node","id":"S05922","lat":44.6043099,"lon":10.4141686,"tags":{"name":"Ciano Via Tedaldo da Canossa","operator":"Ferrovie Emilia Romagna","line":"Reggio Emilia-Ciano d'Enza","osm_id":"3404124868"},"category":"italy_fer"}
{"type":"node","id":"S05799","lat":44.8363154,"lon":12.1020221,"tags":{"name":"Codigoro","operator":"Ferrovie Emilia Romagna","line":"Ferrara-Codigoro","osm_id":"1379441605"},"category":"italy_fer"}
{"type":"node","id":"S05957","lat":44.9765661,"lon":10.7258493,"tags":{"name":"Codisotto","operator":"Ferrovie Emilia Romagna","line":"Parma-Suzzara","osm_id":"3789071790"},"category":"italy_fer"}
{"type":"node","id":"S05999","lat":44.6638662,"lon":11.7768558,"tags":{"name":"Consandolo","operator":"Ferrovie Emilia Romagna","line":"Bologna-Portomaggiore","osm_id":"2320035641"},"category":"italy_fer"}
{"type":"node","id":"S05925","lat":44.6525829,"lon":10.4605606,"tags":{"name":"Corniano","operator":"Ferrovie Emilia Romagna","line":"Reggio Emilia-Ciano d'Enza","osm_id":"3404119323"},"category":"italy_fer"}
{"type":"node","id":"S05973","lat":44.5122406,"lon":11.1298821,"tags":{"name":"Crespellano","operator":"Ferrovie Emilia Romagna","line":"Bologna-Vignola","osm_id":"614571532"},"category":"italy_fer"}
{"type":"node","id":"S05981","lat":44.5745846,"lon":10.7488863,"tags":{"name":"Dinazzano","operator":"Ferrovie Emilia Romagna","line":"Reggio Emilia-Sassuolo","osm_id":"3404093455"},"category":"italy_fer"}
{"type":"node","id":"S05174","lat":44.7503511,"lon":11.8951743,"tags":{"name":"Dogato","operator":"Ferrovie Emilia Romagna","line":"Ferrara-Codigoro","osm_id":"1379440425"},"category":"italy_fer"}
{"type":"node","id":"S05162","lat":44.9716997,"lon":11.3383699,"tags":{"name":"Felonica Po","operator":"Ferrovie Emilia Romagna","line":"Suzzara-Ferrara","osm_id":"1898635762"},"category":"italy_fer"}
{"type":"node","id":"S05190","lat":44.8155885,"lon":11.6602467,"tags":{"name":"Ferrara Città del Ragazzo","operator":"Ferrovie Emilia Romagna","line":"Ferrara-Codigoro","osm_id":"2083424285"},"category":"italy_fer"}
{"type":"node","id":"S05182","lat":44.561154,"lon":10.8126995,"tags":{"name":"Fiorano","operator":"Ferrovie Emilia Romagna","line":"Modena-Sassuolo","osm_id":"485750799"},"category":"italy_fer"}
{"type":"node","id":"S05183","lat":44.5776259,"lon":10.8458355,"tags":{"name":"Formigine","operator":"Ferrovie Emilia Romagna","line":"Modena-Sassuolo","osm_id":"950576592"},"category":"italy_fer"}
{"type":"node","id":"S05961","lat":44.9012421,"lon":10.628696,"tags":{"name":"Gualtieri","operator":"Ferrovie Emilia Romagna","line":"Parma-Suzzara","osm_id":"1998448157"},"category":"italy_fer"}
{"type":"node","id":"S05965","lat":44.8648686,"lon":10.4820618,"tags":{"name":"Lentigione","operator":"Ferrovie Emilia Romagna","line":"Parma-Suzzara","osm_id":"3365985837"},"category":"italy_fer"}
{"type":"node","id":"S05958","lat":44.9590765,"lon":10.6966328,"tags":{"name":"Luzzara","operator":"Ferrovie Emilia Romagna","line":"Parma-Suzzara","osm_id":"1163985780"},"category":"italy_fer"}
{"type":"node","id":"S05159","lat":45.002417,"lon":11.1823251,"tags":{"name":"Magnacavallo","operator":"Ferrovie Emilia Romagna","line":"Suzzara-Ferrara","osm_id":"12294175802"},"category":"italy_fer"}
{"type":"node","id":"S05171","lat":44.7927627,"lon":11.7970192,"tags":{"name":"Masi Torello","operator":"Ferrovie Emilia Romagna","line":"Ferrara-Codigoro","osm_id":"1379440423"},"category":"italy_fer"}
{"type":"node","id":"S05179","lat":44.8041911,"lon":12.0133163,"tags":{"name":"Massafiscaglia","operator":"Ferrovie Emilia Romagna","line":"Ferrara-Codigoro","osm_id":"2121002653"},"category":"italy_fer"}
{"type":"node","id":"S05997","lat":44.586842,"lon":11.5679525,"tags":{"name":"Mezzolara","operator":"Ferrovie Emilia Romagna","line":"Bologna-Portomaggiore","osm_id":"256042824"},"category":"italy_fer"}
{"type":"node","id":"S05176","lat":44.7693506,"lon":11.9384011,"tags":{"name":"Migliarino","operator":"Ferrovie Emilia Romagna","line":"Ferrara-Codigoro","osm_id":"1379441142"},"category":"italy_fer"}
{"type":"node","id":"S05178","lat":44.7951893,"lon":11.9748731,"tags":{"name":"Migliaro","operator":"Ferrovie Emilia Romagna","line":"Ferrara-Codigoro","osm_id":"1379441141"},"category":"italy_fer"}
{"type":"node","id":"S05187","lat":44.613946,"lon":10.8898504,"tags":{"name":"Modena Fornaci","operator":"Ferrovie Emilia Romagna","line":"Modena-Sassuolo","osm_id":"3412857199"},"category":"italy_fer"}
{"type":"node","id":"S05188","lat":44.6344293,"lon":10.9311678,"tags":{"name":"Modena P.Manzoni","operator":"Ferrovie Emilia Romagna","line":"Modena-Sassuolo","osm_id":"250842771"},"category":"italy_fer"}
{"type":"node","id":"S05189","lat":44.6380135,"lon":10.9391022,"tags":{"name":"Modena Policlinico","operator":"Ferrovie Emilia Romagna","line":"Modena-Sassuolo","osm_id":"256465496"},"category":"italy_fer"}
{"type":"node","id":"S05018","lat":44.6274318,"lon":11.6686137,"tags":{"name":"Molinella","operator":"Ferrovie Emilia Romagna","line":"Bologna-Portomaggiore","osm_id":"1103743762"},"category":"italy_fer"}
{"type":"node","id":"S05974","lat":44.5104668,"lon":11.1093522,"tags":{"name":"Muffa","operator":"Ferrovie Emilia Romagna","line":"Bologna-Vignola","osm_id":"614572011"},"category":"italy_fer"}
{"type":"node","id":"S05940","lat":44.8462343,"lon":10.7231478,"tags":{"name":"Novellara","operator":"Ferrovie Emilia Romagna","line":"Reggio Emilia-Guastalla","osm_id":"2005576670"},"category":"italy_fer"}
{"type":"node","id":"S05175","lat":44.7479049,"lon":11.9344914,"tags":{"name":"Ostellato","operator":"Ferrovie Emilia Romagna","line":"Ferrara-Codigoro","osm_id":"2120791494"},"category":"italy_fer"}
{"type":"node","id":"S05154","lat":45.0004433,"lon":10.8536815,"tags":{"name":"Pegognaga","operator":"Ferrovie Emilia Romagna","line":"Suzzara-Ferrara","osm_id":"2451451190"},"category":"italy_fer"}
{"type":"node","id":"S05924","lat":44.6443396,"lon":10.4508005,"tags":{"name":"Piazzola","operator":"Ferrovie Emilia Romagna","line":"Reggio Emilia-Ciano d'Enza","osm_id":"3404119877"},"category":"italy_fer"}
{"type":"node","id":"S05962","lat":44.8994628,"lon":10.5961682,"tags":{"name":"Pieve Saliceto","operator":"Ferrovie Emilia Romagna","line":"Parma-Suzzara","osm_id":"3635187736"},"category":"italy_fer"}
{"type":"node","id":"S05970","lat":44.4882378,"lon":11.2294921,"tags":{"name":"Pilastrino","operator":"Ferrovie Emilia Romagna","line":"Bologna-Vignola","osm_id":"614571490"},"category":"italy_fer"}
{"type":"node","id":"S05919","lat":44.50223,"lon":11.1917335,"tags":{"name":"Ponte Ronca","operator":"Ferrovie Emilia Romagna","line":"Bologna-Vignola","osm_id":"614571489"},"category":"italy_fer"}
{"type":"node","id":"S05985","lat":44.6088761,"lon":10.6794992,"tags":{"name":"Pratissolo","operator":"Ferrovie Emilia Romagna","line":"Reggio Emilia-Sassuolo","osm_id":"491535122"},"category":"italy_fer"}
{"type":"node","id":"S05947","lat":44.7423125,"lon":10.6672569,"tags":{"name":"Pratofontana","operator":"Ferrovie Emilia Romagna","line":"Reggio Emilia-Guastalla","osm_id":"10299320304"},"category":"italy_fer"}
{"type":"node","id":"S05170","lat":44.8044415,"lon":11.7399468,"tags":{"name":"Quartesana","operator":"Ferrovie Emilia Romagna","line":"Ferrara-Codigoro","osm_id":"1379438163"},"category":"italy_fer"}
{"type":"node","id":"S05156","lat":45.002263,"lon":10.9820443,"tags":{"name":"Quistello","operator":"Ferrovie Emilia Romagna","line":"Suzzara-Ferrara","osm_id":"1898647449"},"category":"italy_fer"}
{"type":"node","id":"S05155","lat":45.0361766,"lon":10.9264088,"tags":{"name":"San Benedetto Po","operator":"Ferrovie Emilia Romagna","line":"Suzzara-Ferrara","osm_id":"4307025535"},"category":"italy_fer"}
{"type":"node","id":"S05939","lat":44.8697674,"lon":10.6866502,"tags":{"name":"San Bernardino","operator":"Ferrovie Emilia Romagna","line":"Reggio Emilia-Guastalla","osm_id":"3404469281"},"category":"italy_fer"}
{"type":"node","id":"S05157","lat":44.9970308,"lon":11.0174687,"tags":{"name":"San Rocco Mantovano","operator":"Ferrovie Emilia Romagna","line":"Suzzara-Ferrara","osm_id":"1898646239"},"category":"italy_fer"}
{"type":"node","id":"S05943","lat":44.7940034,"lon":10.6913746,"tags":{"name":"San Tomaso","operator":"Ferrovie Emilia Romagna","line":"Reggio Emilia-Guastalla","osm_id":"3404467812"},"category":"italy_fer"}
{"type":"node","id":"S05181","lat":44.553,"lon":10.7976358,"tags":{"name":"Sassuolo Quattroponti","operator":"Ferrovie Emilia Romagna","line":"Modena-Sassuolo","osm_id":"3412885526"},"category":"italy_fer"}
{"type":"node","id":"S05194","lat":44.5448583,"lon":10.7839012,"tags":{"name":"Sassuolo Radici","operator":"Ferrovie Emilia Romagna","line":"Reggio Emilia-Sassuolo","osm_id":"484680415"},"category":"italy_fer"}
{"type":"node","id":"S05180","lat":44.544244,"lon":10.7867658,"tags":{"name":"Sassuolo Terminal","operator":"Ferrovie Emilia Romagna","line":"Modena-Sassuolo","osm_id":"1977561494"},"category":"italy_fer"}
{"type":"node","id":"S05976","lat":44.494138,"lon":11.0474736,"tags":{"name":"Savignano Mulino","operator":"Ferrovie Emilia Romagna","line":"Bologna-Vignola","osm_id":"614574039"},"category":"italy_fer"}
{"type":"node","id":"S05984","lat":44.6005039,"lon":10.6940454,"tags":{"name":"Scandiano","operator":"Ferrovie Emilia Romagna","line":"Reggio Emilia-Sassuolo","osm_id":"701419869"},"category":"italy_fer"}
{"type":"node","id":"S05158","lat":44.9913332,"lon":11.0753207,"tags":{"name":"Schivenoglia","operator":"Ferrovie Emilia Romagna","line":"Suzzara-Ferrara","osm_id":"1898644883"},"category":"italy_fer"}
{"type":"node","id":"S05161","lat":44.9960223,"lon":11.2895497,"tags":{"name":"Sermide","operator":"Ferrovie Emilia Romagna","line":"Suzzara-Ferrara","osm_id":"1898639274"},"category":"italy_fer"}
{"type":"node","id":"S05966","lat":44.8431107,"lon":10.4461232,"tags":{"name":"Sorbolo","operator":"Ferrovie Emilia Romagna","line":"Parma-Suzzara","osm_id":"3509147562"},"category":"italy_fer"}
{"type":"node","id":"S05164","lat":44.9280604,"lon":11.3921069,"tags":{"name":"Stellata Ficarolo","operator":"Ferrovie Emilia Romagna","line":"Suzzara-Ferrara","osm_id":"1898638149"},"category":"italy_fer"}
{"type":"node","id":"S05959","lat":44.9318564,"lon":10.6844136,"tags":{"name":"Tagliata","operator":"Ferrovie Emilia Romagna","line":"Parma-Suzzara","osm_id":"3972333672"},"category":"italy_fer"}
{"type":"node","id":"S05172","lat":44.7802375,"lon":11.840157,"tags":{"name":"Tresigallo Correggi","operator":"Ferrovie Emilia Romagna","line":"Ferrara-Codigoro","osm_id":"1379440427"},"category":"italy_fer"}
{"type":"node","id":"S05177","lat":44.7826539,"lon":11.9528721,"tags":{"name":"Valcesura","operator":"Ferrovie Emilia Romagna","line":"Ferrara-Codigoro","osm_id":"2121002619"},"category":"italy_fer"}
{"type":"node","id":"S05979","lat":44.5501479,"lon":10.766432,"tags":{"name":"Veggia","operator":"Ferrovie Emilia Romagna","line":"Reggio Emilia-Sassuolo","osm_id":"824527303"},"category":"italy_fer"}
{"type":"node","id":"S05972","lat":44.5098492,"lon":11.1692081,"tags":{"name":"Via Lunga","operator":"Ferrovie Emilia Romagna","line":"Bologna-Vignola","osm_id":"614571535"},"category":"italy_fer"}
{"type":"node","id":"S05166","lat":44.8580954,"lon":11.5064906,"tags":{"name":"Vigarano Pieve","operator":"Ferrovie Emilia Romagna","line":"Suzzara-Ferrara","osm_id":"2122415610"},"category":"italy_fer"}
{"type":"node","id":"S05978","lat":44.4817828,"lon":11.008299,"tags":{"name":"Vignola","operator":"Ferrovie Emilia Romagna","line":"Bologna-Vignola","osm_id":"614574734"},"category":"italy_fer"}
{"type":"node","id":"S05980","lat":44.5575927,"lon":10.7630836,"tags":{"name":"Villalunga","operator":"Ferrovie Emilia Romagna","line":"Reggio Emilia-Sassuolo","osm_id":"820642265"},"category":"italy_fer"}
{"type":"node","id":"S05971","lat":44.586842,"lon":11.5679525,"tags":{"name":"Zola Centro","operator":"Ferrovie Emilia Romagna","line":"Bologna-Vignola","osm_id":"256042824"},"category":"italy_fer"}
{"type":"node","id":"S05918","lat":44.4941412,"lon":11.2094261,"tags":{"name":"Zola Chiesa","operator":"Ferrovie Emilia Romagna","line":"Bologna-Vignola","osm_id":"1232505138"},"category":"italy_fer"}
{"type":"node","id":"S05929","lat":44.6904225,"lon":10.493069,"tags":{"name":"Barco","operator":"Ferrovie Emilia Romagna","line":"Reggio Emilia-Ciano d'Enza","osm_id":"3404115441"},"category":"italy_fer"}
{"type":"node","id":"S05996","lat":44.5363824,"lon":11.5389834,"tags":{"name":"Budrio Centro","operator":"Ferrovie Emilia Romagna","line":"Bologna-Portomaggiore","osm_id":"255884160"},"category":"italy_fer"}
{"type":"node","id":"S05993","lat":44.5018491,"lon":11.4347842,"tags":{"name":"Ca' dell'Orbo","operator":"Ferrovie Emilia Romagna","line":"Bologna-Portomaggiore","osm_id":"255085783"},"category":"italy_fer"}
{"type":"node","id":"S05921","lat":44.5955829,"lon":10.4085996,"tags":{"name":"Ciano d’Enza","operator":"Ferrovie Emilia Romagna","line":"Reggio Emilia-Ciano d'Enza","osm_id":"3404124403"},"category":"italy_fer"}
{"type":"node","id":"S05169","lat":44.8035449,"lon":11.7111995,"tags":{"name":"Cona F.C.","operator":"Ferrovie Emilia Romagna","line":"Ferrara-Codigoro","osm_id":"3394602867"},"category":"italy_fer"}
{"type":"node","id":"S05196","lat":44.8191057,"lon":11.6330178,"tags":{"name":"Ferrara Boschetto","operator":"Ferrovie Emilia Romagna","line":"Ferrara-Codigoro","osm_id":"3394592802","alt_name_1":"Ferrara Via Boschetto"},"category":"italy_fer"}
{"type":"node","id":"S05193","lat":44.8021427,"lon":11.6960067,"tags":{"name":"Ferrara Cona Ospedale","operator":"Ferrovie Emilia Romagna","line":"Ferrara-Codigoro","osm_id":"3394598024","alt_name_1":"Cona Ospedale"},"category":"italy_fer"}
{"type":"node","id":"S05998","lat":44.6105595,"lon":11.6221337,"tags":{"name":"Guarda (Molinella)","operator":"Ferrovie Emilia Romagna","line":"Bologna-Portomaggiore","osm_id":"1103745759"},"category":"italy_fer"}
{"type":"node","id":"S05944","lat":44.779169,"lon":10.6843823,"tags":{"name":"Pieverossa","operator":"Ferrovie Emilia Romagna","line":"Reggio Emilia-Guastalla","osm_id":"3404463366"},"category":"italy_fer"}
{"type":"node","id":"S05986","lat":44.634681,"lon":10.6655834,"tags":{"name":"Posto di Movimento Bosco","operator":"Ferrovie Emilia Romagna","line":"Reggio Emilia-Sassuolo","osm_id":"3535201026"},"category":"italy_fer"}
{"type":"node","id":"S05934","lat":44.704363,"lon":10.6133397,"tags":{"name":"Reggio Emilia All'Angelo","operator":"Ferrovie Emilia Romagna","line":"Reggio Emilia-Ciano d'Enza","osm_id":"4414847516","alt_name_1":"Reggio all’Angelo"},"category":"italy_fer"}
{"type":"node","id":"S05195","lat":44.7247981,"lon":10.6559519,"tags":{"name":"Reggio Emilia Mediopadana","operator":"Ferrovie Emilia Romagna","line":"Reggio Emilia-Guastalla","osm_id":"2940289460","alt_name_1":"Reggio Mediopadana"},"category":"italy_fer"}
{"type":"node","id":"S05988","lat":44.6905082,"lon":10.6533497,"tags":{"name":"Reggio Emilia Ospizio","operator":"Ferrovie Emilia Romagna","line":"Reggio Emilia-Sassuolo","osm_id":"3404075680","alt_name_1":"Reggio Ospizio"},"category":"italy_fer"}
{"type":"node","id":"S05949","lat":44.7079874,"lon":10.6425434,"tags":{"name":"Reggio Emilia Santa Croce","operator":"Ferrovie Emilia Romagna","line":"Reggio Emilia-Guastalla","osm_id":"10299320299","alt_name_1":"Reggio Santa Croce"},"category":"italy_fer"}
{"type":"node","id":"S05192","lat":44.6886793,"lon":10.6670675,"tags":{"name":"Reggio Emilia San Lazzaro","operator":"Ferrovie Emilia Romagna","line":"Reggio Emilia-Guastalla","osm_id":"10299320298","alt_name_1":"Reggio San Lazzaro"},"category":"italy_fer"}
{"type":"node","id":"S05935","lat":44.7054709,"lon":10.6238788,"tags":{"name":"Reggio Emilia Santo Stefano","operator":"Ferrovie Emilia Romagna","line":"Reggio Emilia-Ciano d'Enza","osm_id":"840474582","alt_name_1":"Reggio Santo Stefano"},"category":"italy_fer"}
{"type":"node","id":"S05191","lat":44.7164751,"lon":10.649327,"tags":{"name":"Reggio Emilia Stadio","operator":"Ferrovie Emilia Romagna","line":"Reggio Emilia-Guastalla","osm_id":"10299320303","alt_name_1":"Reggio Stadio"},"category":"italy_fer"}
{"type":"node","id":"S05936","lat":44.7059631,"lon":10.633792,"tags":{"name":"Reggio Emilia Via Fanti - Tribunale","operator":"Ferrovie Emilia Romagna","line":"Reggio Emilia-Ciano d'Enza","osm_id":"3055742012","alt_name_1":"Reggio Via Fanti"},"category":"italy_fer"}
{"type":"node","id":"S05969","lat":44.4854822,"lon":11.2410749,"tags":{"name":"Riale","operator":"Ferrovie Emilia Romagna","line":"Bologna-Vignola","osm_id":"1232505046","alt_name_1":"Riale"},"category":"italy_fer"}
{"type":"node","id":"S05173","lat":44.767026,"lon":11.874595,"tags":{"name":"Rovereto - San Vito - Medelana","operator":"Ferrovie Emilia Romagna","line":"Ferrara-Codigoro","osm_id":"1379440426","alt_name_1":"Rovereto-San Vito-Medelana"},"category":"italy_fer"}
{"type":"node","id":"S05938","lat":44.8946303,"lon":10.6583876,"tags":{"name":"San Giacomo","operator":"Ferrovie Emilia Romagna","line":"Reggio Emilia-Guastalla","osm_id":"3404470807","alt_name_1":"San Giacomo (Guastalla)"},"category":"italy_fer"}
{"type":"node","id":"S05941","lat":44.8130884,"lon":10.7039801,"tags":{"name":"San Giovanni","operator":"Ferrovie Emilia Romagna","line":"Reggio Emilia-Guastalla","osm_id":"3404468566","alt_name_1":"San Giovanni (Novellara)"},"category":"italy_fer"}
{"type":"node","id":"S05923","lat":44.6245791,"lon":10.4235922,"tags":{"name":"San Polo d'Enza","operator":"Ferrovie Emilia Romagna","line":"Reggio Emilia-Ciano d'Enza","osm_id":"840473736","alt_name_1":"San Polo d'Enza"},"category":"italy_fer"}
{"type":"node","id":"S05977","lat":44.4832914,"lon":11.0328685,"tags":{"name":"Savignano Centro","operator":"Ferrovie Emilia Romagna","line":"Bologna-Vignola","osm_id":"486405258","alt_name_1":"Savignano Centro"},"category":"italy_fer"}
{"type":"node","id":"S05160","lat":44.9987061,"lon":11.2209519,"tags":{"name":"Vallazza Carbonara Po","operator":"Ferrovie Emilia Romagna","line":"Suzzara-Ferrara","osm_id":"1898640176","alt_name_1":"Vallazza Carbonara Po"},"category":"italy_fer"}
{"type":"node","id":"S05942","lat":44.8057803,"lon":10.6979005,"tags":{"name":"Vezzola","operator":"Ferrovie Emilia Romagna","line":"Reggio Emilia-Guastalla","osm_id":"10299320302","alt_name_1":"Vezzola"},"category":"italy_fer"}
{"type":"node","id":"S05163","lat":44.9510246,"lon":11.3683605,"tags":{"name":"Zerbinate","operator":"Ferrovie Emilia Romagna","line":"Suzzara-Ferrara","osm_id":1898636371,"alt_name_1":"Zerbinate"},"category":"italy_fer"}
