{"type":"node","id":740000001,"lat":59.331537,"lon":18.054943,"tags":{"name":"Stockholm Centralstation","short_name":"Stockholms C","private_code":"1","transport_mode":"rail","stop_place_type":"railStation","weighting":"interchangeAllowed","alt_name":"Stockholm Centralstation","abbreviation":"CST","owner":"1","sellable":"true"},"category":"sweden_all"}
{"type":"node","id":740000002,"lat":57.709299,"lon":11.973659,"tags":{"name":"Göteborg Centralstation","short_name":"Göteborg Central","private_code":"2","transport_mode":"rail","stop_place_type":"railStation","weighting":"preferredInterchange","alt_name":"Göteborg Centralstation","abbreviation":"G","owner":"14","sellable":"true"},"category":"sweden_all"}
{"type":"node","id":740000003,"lat":55.608777,"lon":13.000216,"tags":{"name":"Malmö Centralstation","short_name":"Malmö C","private_code":"3","transport_mode":"rail","stop_place_type":"railStation","weighting":"preferredInterchange","alt_name":"Malmö Centralstation","abbreviation":"M","owner":"12","sellable":"true"},"category":"sweden_all"}
{"type":"node","id":740000004,"lat":56.898911,"lon":14.55679,"tags":{"name":"Alvesta station","short_name":"Alvesta station","private_code":"4","transport_mode":"rail","stop_place_type":"railStation","weighting":"preferredInterchange","alt_name":"Alvesta station","abbreviation":"AV","owner":"7","sellable":"true"},"category":"sweden_all"}
{"type":"node","id":740000005,"lat":59.857769,"lon":17.647454,"tags":{"name":"Uppsala Centralstation","short_name":"Centralstationen","private_code":"5","transport_mode":"rail","stop_place_type":"railStation","weighting":"preferredInterchange","alt_name":"Uppsala Centralstation","abbreviation":"U","owner":"3","sellable":"true"},"category":"sweden_all"}
{"type":"node","id":740000006,"lat":56.15804,"lon":13.763268,"tags":{"name":"Hässleholm Centralstation","short_name":"Hässleholm C","private_code":"6","transport_mode":"rail","stop_place_type":"railStation","weighting":"preferredInterchange","alt_name":"Hässleholm Centralstation","abbreviation":"HM","owner":"12","sellable":"true"},"category":"sweden_all"}
{"type":"node","id":740000007,"lat":58.596629,"lon":16.185461,"tags":{"name":"Norrköping Centralstation","short_name":"Resecentrum","private_code":"7","transport_mode":"rail","stop_place_type":"railStation","weighting":"preferredInterchange","alt_name":"Norrköping Centralstation","abbreviation":"NR","owner":"5","sellable":"true"},"category":"sweden_all"}
{"type":"node","id":740000008,"lat":58.390912,"lon":13.852688,"tags":{"name":"Skövde Centralstation","short_name":"Skövde resec.","private_code":"8","transport_mode":"rail","stop_place_type":"railStation","weighting":"preferredInterchange","alt_name":"Skövde Centralstation","abbreviation":"SK","owner":"14","sellable":"true"},"category":"sweden_all"}
{"type":"node","id":740000009,"lat":58.417119,"lon":15.624071,"tags":{"name":"Linköping Centralstation","short_name":"Linköpings resec","private_code":"9","transport_mode":"rail","stop_place_type":"railStation","weighting":"preferredInterchange","alt_name":"Linköping Centralstation","abbreviation":"LP","owner":"5","sellable":"true"},"category":"sweden_all"}
{"type":"node","id":740000011,"lat":55.870823,"lon":13.08574,"tags":{"name":"Teckomatorp station","short_name":"Teckomatorp","private_code":"11","transport_mode":"rail","stop_place_type":"railStation","weighting":"recommendedInterchange","alt_name":"Teckomatorp station","abbreviation":"TP","owner":"12","sellable":"true"},"category":"sweden_all"}
{"type":"node","id":740000012,"lat":58.359409,"lon":12.391888,"tags":{"name":"Vargön station","short_name":"Vargön station","private_code":"12","transport_mode":"rail","stop_place_type":"railStation","weighting":"recommendedInterchange","alt_name":"Vargön station","abbreviation":"VAG","owner":"14","sellable":"true"},"category":"sweden_all"}
{"type":"node","id":740000014,"lat":58.071929,"lon":11.823338,"tags":{"name":"Stenungsunds station","short_name":"Stenungsunds stn","private_code":"14","transport_mode":"rail","stop_place_type":"railStation","weighting":"preferredInterchange","alt_name":"Stenungsunds station","abbreviation":"SNU","owner":"14","sellable":"true"},"category":"sweden_all"}
{"type":"node","id":740000015,"lat":58.194477,"lon":15.055168,"tags":{"name":"Boxholms station","short_name":"Boxholms station","private_code":"15","transport_mode":"rail","stop_place_type":"railStation","weighting":"preferredInterchange","alt_name":"Boxholms station","abbreviation":"BX","owner":"5","sellable":"true"},"category":"sweden_all"}
{"type":"node","id":740000016,"lat":58.261181,"lon":12.951753,"tags":{"name":"Vara resecentrum","short_name":"Vara resecentrum","private_code":"16","transport_mode":"rail","stop_place_type":"railStation","weighting":"preferredInterchange","alt_name":"Vara resecentrum","abbreviation":"VAA","owner":"14","sellable":"true"},"category":"sweden_all"}
{"type":"node","id":740000018,"lat":57.926887,"lon":12.531764,"tags":{"name":"Alingsås station","short_name":"Alingsås station","private_code":"18","transport_mode":"rail","stop_place_type":"railStation","weighting":"preferredInterchange","alt_name":"Alingsås station","abbreviation":"A","owner":"14","sellable":"true"},"category":"sweden_all"}
{"type":"node","id":740000019,"lat":60.734327,"lon":15.002311,"tags":{"name":"Leksand resecentrum","short_name":"Leksand resecent","private_code":"19","transport_mode":"rail","stop_place_type":"railStation","weighting":"preferredInterchange","alt_name":"Leksand resecentrum","abbreviation":"LSD","owner":"20","sellable":"true"},"category":"sweden_all"}
{"type":"node","id":740000020,"lat":56.661555,"lon":16.359288,"tags":{"name":"Kalmar Centralstation","short_name":"Kalmar C","private_code":"20","transport_mode":"rail","stop_place_type":"railStation","weighting":"preferredInterchange","alt_name":"Kalmar Centralstation","abbreviation":"KAC","owner":"8","sellable":"true"},"category":"sweden_all"}
{"type":"node","id":740000021,"lat":57.026157,"lon":13.105521,"tags":{"name":"Kinnared","short_name":"Kinnared","private_code":"21","transport_mode":"rail","stop_place_type":"railStation","weighting":"recommendedInterchange","owner":"13","sellable":"true","abbreviation":"KID"},"category":"sweden_all"}
{"type":"node","id":740000022,"lat":56.136456,"lon":13.397091,"tags":{"name":"Perstorp station","short_name":"Perstorp stn","private_code":"22","transport_mode":"rail","stop_place_type":"railStation","weighting":"preferredInterchange","alt_name":"Perstorp station","abbreviation":"PT","owner":"12","sellable":"true"},"category":"sweden_all"}
{"type":"node","id":740000023,"lat":59.131898,"lon":12.916517,"tags":{"name":"Säffle Resecentrum","short_name":"Säffle Resecentr","private_code":"23","transport_mode":"rail","stop_place_type":"railStation","weighting":"preferredInterchange","alt_name":"Säffle Resecentrum","abbreviation":"SFL","owner":"17","sellable":"true"},"category":"sweden_all"}
{"type":"node","id":740000024,"lat":60.071321,"lon":15.537763,"tags":{"name":"Söderbärke (Tåg)","short_name":"Söderbärke (Tåg)","private_code":"46521","transport_mode":"rail","stop_place_type":"railStation","weighting":"interchangeAllowed","owner":"20","sellable":"true","abbreviation":"SRE"},"category":"sweden_all"}
{"type":"node","id":740000025,"lat":63.316329,"lon":12.100245,"tags":{"name":"Storlien järnvägsstation","short_name":"Storlien jvst","private_code":"25","transport_mode":"rail","stop_place_type":"railStation","weighting":"interchangeAllowed","alt_name":"Storlien järnvägsstation","abbreviation":"STR","owner":"23","sellable":"true"},"category":"sweden_all"}
{"type":"node","id":740000026,"lat":60.346724,"lon":15.757814,"tags":{"name":"Säter station","short_name":"Säter station","private_code":"26","transport_mode":"rail","stop_place_type":"railStation","weighting":"preferredInterchange","alt_name":"Säter station","abbreviation":"ST","owner":"20","sellable":"true"},"category":"sweden_all"}
{"type":"node","id":740000027,"lat":59.627523,"lon":17.861107,"tags":{"name":"Märsta","short_name":"Märsta","private_code":"27","transport_mode":"rail","stop_place_type":"railStation","weighting":"recommendedInterchange","alt_name":"Märsta","abbreviation":"MR","owner":"1","sellable":"true"},"category":"sweden_all"}
{"type":"node","id":740000028,"lat":55.427543,"lon":13.825779,"tags":{"name":"Ystad station","short_name":"Ystad stn","private_code":"28","transport_mode":"rail","stop_place_type":"railStation","weighting":"preferredInterchange","alt_name":"Ystad station","abbreviation":"Y","owner":"12","sellable":"true"},"category":"sweden_all"}
{"type":"node","id":740000030,"lat":60.603137,"lon":15.642209,"tags":{"name":"Falun TÅG","short_name":"Falun järnvägsst","private_code":"30","transport_mode":"rail","stop_place_type":"railStation","weighting":"recommendedInterchange","alt_name":"Falun TÅG","abbreviation":"FLN","owner":"20","sellable":"true"},"category":"sweden_all"}
{"type":"node","id":740000031,"lat":59.219028,"lon":17.947176,"tags":{"name":"Flemingsberg","short_name":"Flemingsberg","private_code":"31","transport_mode":"rail","stop_place_type":"railStation","weighting":"recommendedInterchange","alt_name":"Flemingsberg","abbreviation":"FLB","owner":"1","sellable":"true"},"category":"sweden_all"}
{"type":"node","id":740000032,"lat":62.750011,"lon":15.418181,"tags":{"name":"Bräcke järnvägsstation","short_name":"Bräcke jvst","private_code":"32","transport_mode":"rail","stop_place_type":"railStation","weighting":"recommendedInterchange","alt_name":"Bräcke järnvägsstation","abbreviation":"BÄ","owner":"23","sellable":"true"},"category":"sweden_all"}
{"type":"node","id":740000034,"lat":57.697989,"lon":14.474152,"tags":{"name":"Forserum station","short_name":"Forserums statio","private_code":"34","transport_mode":"rail","stop_place_type":"railStation","weighting":"recommendedInterchange","alt_name":"Forserum station","abbreviation":"FM","owner":"6","sellable":"true"},"category":"sweden_all"}
{"type":"node","id":740000036,"lat":58.139094,"lon":13.335047,"tags":{"name":"Floby station","short_name":"Floby station","private_code":"36","transport_mode":"rail","stop_place_type":"railStation","weighting":"preferredInterchange","alt_name":"Floby station","abbreviation":"FBY","owner":"14","sellable":"true"},"category":"sweden_all"}
{"type":"node","id":740000037,"lat":63.321568,"lon":12.539168,"tags":{"name":"Ånn järnvägsstation","short_name":"Ånn jvst","private_code":"37","transport_mode":"rail","stop_place_type":"railStation","weighting":"interchangeAllowed","alt_name":"Ånn järnvägsstation","abbreviation":"ÅNN","owner":"23","sellable":"true"},"category":"sweden_all"}
{"type":"node","id":740000039,"lat":58.701947,"lon":12.463864,"tags":{"name":"Mellerud station","short_name":"Mellerud station","private_code":"39","transport_mode":"rail","stop_place_type":"railStation","weighting":"preferredInterchange","alt_name":"Mellerud station","abbreviation":"ML","owner":"14","sellable":"true"},"category":"sweden_all"}
{"type":"node","id":740000040,"lat":58.078747,"lon":13.020134,"tags":{"name":"Herrljunga station","short_name":"Herrljunga stn","private_code":"40","transport_mode":"rail","stop_place_type":"railStation","weighting":"recommendedInterchange","alt_name":"Herrljunga station","abbreviation":"HRC","owner":"14","sellable":"true"},"category":"sweden_all"}
{"type":"node","id":740000041,"lat":58.038384,"lon":14.97559,"tags":{"name":"Tranås station","short_name":"Tranås station","private_code":"41","transport_mode":"rail","stop_place_type":"railStation","weighting":"preferredInterchange","alt_name":"Tranås station","abbreviation":"TNS","owner":"6","sellable":"true"},"category":"sweden_all"}
{"type":"node","id":740000042,"lat":60.274413,"lon":15.980067,"tags":{"name":"Hedemora resecentrum","short_name":"Hedemora resecen","private_code":"42","transport_mode":"rail","stop_place_type":"railStation","weighting":"preferredInterchange","alt_name":"Hedemora resecentrum","abbreviation":"HDM","owner":"20","sellable":"true"},"category":"sweden_all"}
{"type":"node","id":740000044,"lat":56.043055,"lon":12.69498,"tags":{"name":"Helsingborg Centralstation","short_name":"Helsingborg C","private_code":"44","transport_mode":"rail","stop_place_type":"railStation","weighting":"preferredInterchange","alt_name":"Helsingborg Centralstation","abbreviation":"HB","owner":"12","sellable":"true"},"category":"sweden_all"}
{"type":"node","id":740000045,"lat":56.550769,"lon":14.137583,"tags":{"name":"Älmhult station","short_name":"Älmhult station","private_code":"45","transport_mode":"rail","stop_place_type":"railStation","weighting":"preferredInterchange","alt_name":"Älmhult station","abbreviation":"ÄH","owner":"7","sellable":"true"},"category":"sweden_all"}
{"type":"node","id":740000046,"lat":59.769532,"lon":16.207399,"tags":{"name":"Ramnäs Nya Jvstn","short_name":"Ramnäs Nya Jvstn","private_code":"46","transport_mode":"rail","stop_place_type":"railStation","weighting":"preferredInterchange","alt_name":"Ramnäs Nya Jvstn","abbreviation":"RMN","owner":"19","sellable":"true"},"category":"sweden_all"}
{"type":"node","id":740000048,"lat":59.884065,"lon":12.298423,"tags":{"name":"Charlottenberg Resecentrum","short_name":"Charlottenberg r","private_code":"48","transport_mode":"rail","stop_place_type":"railStation","weighting":"preferredInterchange","alt_name":"Charlottenberg Resecentrum","abbreviation":"CG","owner":"17","sellable":"true"},"category":"sweden_all"}
{"type":"node","id":740000049,"lat":59.179044,"lon":17.64629,"tags":{"name":"Södertälje hamn station","short_name":"Södertälje hamn","private_code":"49","transport_mode":"rail","stop_place_type":"railStation","weighting":"interchangeAllowed","alt_name":"Södertälje hamn station","abbreviation":"SÖD","owner":"1","sellable":"true"},"category":"sweden_all"}
{"type":"node","id":740000050,"lat":58.755598,"lon":16.995471,"tags":{"name":"Nyköping Centralstation","short_name":"Centralstationen","private_code":"50","transport_mode":"rail","stop_place_type":"railStation","weighting":"preferredInterchange","alt_name":"Nyköping Centralstation","abbreviation":"NK","owner":"4","sellable":"true"},"category":"sweden_all"}
{"type":"node","id":740000052,"lat":57.186012,"lon":14.036215,"tags":{"name":"Värnamo Central","short_name":"Värnamo station","private_code":"52","transport_mode":"rail","stop_place_type":"railStation","weighting":"preferredInterchange","alt_name":"Värnamo Central","abbreviation":"V","owner":"6","sellable":"true"},"category":"sweden_all"}
{"type":"node","id":740000054,"lat":58.580561,"lon":11.535341,"tags":{"name":"Hällevadsholm station","short_name":"Hällevadsholm st","private_code":"54","transport_mode":"rail","stop_place_type":"railStation","weighting":"preferredInterchange","alt_name":"Hällevadsholm station","abbreviation":"HLV","owner":"14","sellable":"true"},"category":"sweden_all"}
{"type":"node","id":740000055,"lat":59.162354,"lon":17.643625,"tags":{"name":"Södertälje syd station","short_name":"Södertälje syd","private_code":"55","transport_mode":"rail","stop_place_type":"railStation","weighting":"preferredInterchange","alt_name":"Södertälje syd station","abbreviation":"SÖU|SÖÖ","owner":"1","sellable":"true"},"category":"sweden_all"}
{"type":"node","id":740000056,"lat":58.84334,"lon":11.259369,"tags":{"name":"Överby","short_name":"Överby","private_code":"56","transport_mode":"rail","stop_place_type":"railStation","weighting":"recommendedInterchange","alt_name":"Överby","abbreviation":"ÖVB","owner":"14","sellable":"true"},"category":"sweden_all"}
{"type":"node","id":740000058,"lat":56.501928,"lon":12.999294,"tags":{"name":"Laholm Järnvägsstationen","short_name":"Järnvägsstatione","private_code":"58","transport_mode":"rail","stop_place_type":"railStation","weighting":"preferredInterchange","owner":"13","sellable":"true","abbreviation":"LAOV"},"category":"sweden_all"}
{"type":"node","id":740000059,"lat":68.408387,"lon":18.686353,"tags":{"name":"Björkliden","short_name":"Björkliden","private_code":"59155","transport_mode":"rail","stop_place_type":"railStation","weighting":"interchangeAllowed","alt_name":"Björkliden","abbreviation":"BLN","owner":"25","sellable":"true"},"category":"sweden_all"}
{"type":"node","id":740000060,"lat":58.175968,"lon":13.553595,"tags":{"name":"Falköping resecentrum","short_name":"Resecentrum","private_code":"60","transport_mode":"rail","stop_place_type":"railStation","weighting":"preferredInterchange","alt_name":"Falköping resecentrum","abbreviation":"F","owner":"14","sellable":"true"},"category":"sweden_all"}
{"type":"node","id":740000062,"lat":60.136547,"lon":15.406513,"tags":{"name":"Smedjebacken resecentrum","short_name":"Smedjebacken res","private_code":"62","transport_mode":"rail","stop_place_type":"railStation","weighting":"preferredInterchange","alt_name":"Smedjebacken resecentrum","abbreviation":"SMJ","owner":"20","sellable":"true"},"category":"sweden_all"}
{"type":"node","id":740000063,"lat":63.289569,"lon":12.337502,"tags":{"name":"Enafors järnvägsstation","short_name":"Enafors jvst","private_code":"63","transport_mode":"rail","stop_place_type":"railStation","weighting":"interchangeAllowed","alt_name":"Enafors järnvägsstation","abbreviation":"ENS","owner":"23","sellable":"true"},"category":"sweden_all"}
{"type":"node","id":740000064,"lat":56.245732,"lon":12.854202,"tags":{"name":"Ängelholm station","short_name":"Ängelholm","private_code":"64","transport_mode":"rail","stop_place_type":"railStation","weighting":"preferredInterchange","alt_name":"Ängelholm station","abbreviation":"Ä","owner":"12","sellable":"true"},"category":"sweden_all"}
{"type":"node","id":740000065,"lat":58.529534,"lon":11.579324,"tags":{"name":"Dingle station","short_name":"Dingle station","private_code":"65","transport_mode":"rail","stop_place_type":"railStation","weighting":"preferredInterchange","alt_name":"Dingle station","abbreviation":"DL","owner":"14","sellable":"true"},"category":"sweden_all"}
{"type":"node","id":740000066,"lat":57.91846,"lon":12.061953,"tags":{"name":"Nol station","short_name":"Nol station","private_code":"66","transport_mode":"rail","stop_place_type":"railStation","weighting":"recommendedInterchange","alt_name":"Nol station","abbreviation":"NOL","owner":"14","sellable":"true"},"category":"sweden_all"}
{"type":"node","id":740000067,"lat":59.248219,"lon":17.167383,"tags":{"name":"Läggesta station","short_name":"Läggesta station","private_code":"67","transport_mode":"rail","stop_place_type":"railStation","weighting":"preferredInterchange","alt_name":"Läggesta station","abbreviation":"LG","owner":"4","sellable":"true"},"category":"sweden_all"}
{"type":"node","id":740000069,"lat":56.206431,"lon":15.283848,"tags":{"name":"Ronneby resecentrum","short_name":"Ronneby Resecent","private_code":"69","transport_mode":"rail","stop_place_type":"railStation","weighting":"preferredInterchange","alt_name":"Ronneby resecentrum","abbreviation":"RB","owner":"10","sellable":"true"},"category":"sweden_all"}
{"type":"node","id":740000070,"lat":59.378044,"lon":13.498291,"tags":{"name":"Karlstad Centralstation","short_name":"Centralstationen","private_code":"70","transport_mode":"rail","stop_place_type":"railStation","weighting":"preferredInterchange","alt_name":"Karlstad Centralstation","abbreviation":"KSC","owner":"17","sellable":"true"},"category":"sweden_all"}
{"type":"node","id":740000071,"lat":58.87228,"lon":14.333313,"tags":{"name":"Gårdsjö station","short_name":"Gårdsjö station","private_code":"71","transport_mode":"rail","stop_place_type":"railStation","weighting":"preferredInterchange","owner":"14","sellable":"true","abbreviation":"GDÖ"},"category":"sweden_all"}
{"type":"node","id":740000072,"lat":59.644324,"lon":17.086745,"tags":{"name":"Enköping station (Enköping)","short_name":"Enköping station","private_code":"72","transport_mode":"rail","stop_place_type":"railStation","weighting":"preferredInterchange","alt_name":"Enköping station (Enköping)","abbreviation":"EP","owner":"3","sellable":"true"},"category":"sweden_all"}
{"type":"node","id":740000073,"lat":56.175806,"lon":14.867536,"tags":{"name":"Karlshamns resecentrum","short_name":"Karlshamn Resece","private_code":"73","transport_mode":"rail","stop_place_type":"railStation","weighting":"preferredInterchange","alt_name":"Karlshamns resecentrum","abbreviation":"KH","owner":"10","sellable":"true"},"category":"sweden_all"}
{"type":"node","id":740000075,"lat":58.922417,"lon":11.263222,"tags":{"name":"Skee station","short_name":"Skee station","private_code":"75","transport_mode":"rail","stop_place_type":"railStation","weighting":"recommendedInterchange","alt_name":"Skee station","abbreviation":"SKE","owner":"14","sellable":"true"},"category":"sweden_all"}
{"type":"node","id":740000076,"lat":59.046329,"lon":12.698745,"tags":{"name":"Åmål station","short_name":"Åmål station","private_code":"76","transport_mode":"rail","stop_place_type":"railStation","weighting":"recommendedInterchange","owner":"14","sellable":"true","abbreviation":"ÅL"},"category":"sweden_all"}
{"type":"node","id":740000077,"lat":59.066661,"lon":15.110266,"tags":{"name":"Hallsbergs resecentrum","short_name":"Hallsbergs resec","private_code":"77","transport_mode":"rail","stop_place_type":"railStation","weighting":"preferredInterchange","alt_name":"Hallsbergs resecentrum","abbreviation":"HPBG","owner":"18","sellable":"true"},"category":"sweden_all"}
{"type":"node","id":740000078,"lat":57.402524,"lon":14.665083,"tags":{"name":"Sävsjö station","short_name":"Sävsjö station","private_code":"78","transport_mode":"rail","stop_place_type":"railStation","weighting":"preferredInterchange","alt_name":"Sävsjö station","abbreviation":"SÄ","owner":"6","sellable":"true"},"category":"sweden_all"}
{"type":"node","id":740000079,"lat":56.050293,"lon":14.583849,"tags":{"name":"Sölvesborgs resecentrum","short_name":"Sölvesborgs Rese","private_code":"79","transport_mode":"rail","stop_place_type":"railStation","weighting":"preferredInterchange","alt_name":"Sölvesborgs resecentrum","abbreviation":"SÖG","owner":"10","sellable":"true"},"category":"sweden_all"}
{"type":"node","id":740000080,"lat":56.669271,"lon":12.864841,"tags":{"name":"Halmstad Centralstation","short_name":"Halmstad C","private_code":"80","transport_mode":"rail","stop_place_type":"railStation","weighting":"preferredInterchange","alt_name":"Halmstad Centralstation","abbreviation":"HD","owner":"13","sellable":"true"},"category":"sweden_all"}
{"type":"node","id":740000081,"lat":57.892768,"lon":12.043899,"tags":{"name":"Nödinge station","short_name":"Nödinge station","private_code":"81","transport_mode":"rail","stop_place_type":"railStation","weighting":"recommendedInterchange","owner":"14","sellable":"true","abbreviation":"NÖE"},"category":"sweden_all"}
{"type":"node","id":740000082,"lat":57.75537,"lon":16.643266,"tags":{"name":"Västervik Resecentrum","short_name":"Västervik Resece","private_code":"82","transport_mode":"rail","stop_place_type":"railStation","weighting":"preferredInterchange","alt_name":"Västervik Resecentrum","abbreviation":"VK","owner":"8","sellable":"true"},"category":"sweden_all"}
{"type":"node","id":740000083,"lat":58.307081,"lon":12.907366,"tags":{"name":"Håkantorp station","short_name":"Håkantorp stn","private_code":"83","transport_mode":"rail","stop_place_type":"railStation","weighting":"recommendedInterchange","alt_name":"Håkantorp station","abbreviation":"HÅP","owner":"14","sellable":"true"},"category":"sweden_all"}
{"type":"node","id":740000084,"lat":57.664143,"lon":14.976388,"tags":{"name":"Eksjö Resecentrum","short_name":"Eksjö Resecentru","private_code":"84","transport_mode":"rail","stop_place_type":"railStation","weighting":"preferredInterchange","alt_name":"Eksjö Resecentrum","abbreviation":"EK","owner":"6","sellable":"true"},"category":"sweden_all"}
{"type":"node","id":740000086,"lat":57.426394,"lon":15.08127,"tags":{"name":"Vetlanda Resecentrum","short_name":"Vetlanda Resecen","private_code":"86","transport_mode":"rail","stop_place_type":"railStation","weighting":"preferredInterchange","alt_name":"Vetlanda Resecentrum","abbreviation":"VTA","owner":"6","sellable":"true"},"category":"sweden_all"}
{"type":"node","id":740000087,"lat":58.465179,"lon":11.677135,"tags":{"name":"Munkedal station","short_name":"Munkedal station","private_code":"87","transport_mode":"rail","stop_place_type":"railStation","weighting":"preferredInterchange","alt_name":"Munkedal station","abbreviation":"MKL","owner":"14","sellable":"true"},"category":"sweden_all"}
{"type":"node","id":740000088,"lat":55.371691,"lon":13.160428,"tags":{"name":"Trelleborg C","short_name":"Tbg C","private_code":"88","transport_mode":"rail","stop_place_type":"railStation","weighting":"preferredInterchange","alt_name":"Trelleborg C","abbreviation":"TRG","owner":"12","sellable":"true"},"category":"sweden_all"}
{"type":"node","id":740000089,"lat":57.443249,"lon":13.595923,"tags":{"name":"Hestra station","short_name":"Hestra station","private_code":"89","transport_mode":"rail","stop_place_type":"railStation","weighting":"recommendedInterchange","alt_name":"Hestra station","abbreviation":"HET","owner":"6","sellable":"true"},"category":"sweden_all"}
{"type":"node","id":740000090,"lat":57.784311,"lon":14.164062,"tags":{"name":"Jönköping Centralstation","short_name":"Jönköping Resece","private_code":"90","transport_mode":"rail","stop_place_type":"railStation","weighting":"preferredInterchange","alt_name":"Jönköping Centralstation","abbreviation":"JÖ","owner":"6","sellable":"true"},"category":"sweden_all"}
{"type":"node","id":740000093,"lat":59.595,"lon":15.227707,"tags":{"name":"Lindesberg Resecentrum","short_name":"Lindesberg Resec","private_code":"93","transport_mode":"rail","stop_place_type":"railStation","weighting":"preferredInterchange","alt_name":"Lindesberg Resecentrum","abbreviation":"LD","owner":"18","sellable":"true"},"category":"sweden_all"}
{"type":"node","id":740000095,"lat":58.936611,"lon":11.173806,"tags":{"name":"Strömstad station","short_name":"Strömstad stn","private_code":"95","transport_mode":"rail","stop_place_type":"railStation","weighting":"preferredInterchange","alt_name":"Strömstad station","abbreviation":"SMD","owner":"14","sellable":"true"},"category":"sweden_all"}
{"type":"node","id":740000096,"lat":56.629871,"lon":15.535141,"tags":{"name":"Emmaboda station","short_name":"Emmaboda station","private_code":"96","transport_mode":"rail","stop_place_type":"railStation","weighting":"preferredInterchange","alt_name":"Emmaboda station","abbreviation":"EM","owner":"8","sellable":"true"},"category":"sweden_all"}
{"type":"node","id":740000097,"lat":60.817963,"lon":15.01872,"tags":{"name":"Tällberg station","short_name":"Tällberg station","private_code":"97","transport_mode":"rail","stop_place_type":"railStation","weighting":"preferredInterchange","alt_name":"Tällberg station","abbreviation":"TLG","owner":"20","sellable":"true"},"category":"sweden_all"}
{"type":"node","id":740000098,"lat":58.224414,"lon":11.920309,"tags":{"name":"Ljungskile station","short_name":"Ljungskile stn","private_code":"98","transport_mode":"rail","stop_place_type":"railStation","weighting":"preferredInterchange","alt_name":"Ljungskile station","abbreviation":"LJ","owner":"14","sellable":"true"},"category":"sweden_all"}
{"type":"node","id":740000099,"lat":59.608448,"lon":16.553247,"tags":{"name":"Västerås Centralstation","short_name":"Centralen","private_code":"99","transport_mode":"rail","stop_place_type":"railStation","weighting":"preferredInterchange","alt_name":"Västerås Centralstation","abbreviation":"VÅ","owner":"19","sellable":"true"},"category":"sweden_all"}
{"type":"node","id":740000100,"lat":57.535958,"lon":13.353539,"tags":{"name":"Limmared station","short_name":"Limmared stn","private_code":"100","transport_mode":"rail","stop_place_type":"railStation","weighting":"recommendedInterchange","alt_name":"Limmared station","abbreviation":"LME","owner":"14","sellable":"true"},"category":"sweden_all"}
{"type":"node","id":740000102,"lat":56.083496,"lon":12.912574,"tags":{"name":"Bjuv station","short_name":"Bjuv","private_code":"102","transport_mode":"rail","stop_place_type":"railStation","weighting":"recommendedInterchange","alt_name":"Bjuv station","abbreviation":"BJUV","owner":"12","sellable":"true"},"category":"sweden_all"}
{"type":"node","id":740000105,"lat":62.523485,"lon":15.659747,"tags":{"name":"Ånge bstn","private_code":"105","transport_mode":"rail","stop_place_type":"railStation","weighting":"interchangeAllowed","owner":"22","sellable":"true","abbreviation":"ÅG"},"category":"sweden_all"}
{"type":"node","id":740000107,"lat":58.334619,"lon":12.684733,"tags":{"name":"Grästorp resecentrum","short_name":"Grästorp resec.","private_code":"107","transport_mode":"rail","stop_place_type":"railStation","weighting":"recommendedInterchange","owner":"14","sellable":"true","abbreviation":"GOP"},"category":"sweden_all"}
{"type":"node","id":740000108,"lat":59.371158,"lon":17.026022,"tags":{"name":"Strängnäs Resecentrum","short_name":"Resecentrum","private_code":"108","transport_mode":"rail","stop_place_type":"railStation","weighting":"preferredInterchange","alt_name":"Strängnäs Resecentrum","abbreviation":"SGS","owner":"4","sellable":"true"},"category":"sweden_all"}
{"type":"node","id":740000109,"lat":57.827087,"lon":13.008897,"tags":{"name":"Fristad station","short_name":"Fristad station","private_code":"109","transport_mode":"rail","stop_place_type":"railStation","weighting":"recommendedInterchange","alt_name":"Fristad station","abbreviation":"FRA","owner":"14","sellable":"true"},"category":"sweden_all"}
{"type":"node","id":740000110,"lat":57.1096,"lon":12.250621,"tags":{"name":"Varberg bussterminal","short_name":"Varberg bussterm","private_code":"110","transport_mode":"rail","stop_place_type":"railStation","weighting":"preferredInterchange","alt_name":"Varberg bussterminal","abbreviation":"VB","owner":"13","sellable":"true"},"category":"sweden_all"}
{"type":"node","id":740000111,"lat":60.130053,"lon":16.21642,"tags":{"name":"Krylbo resecentrum","short_name":"Krylbo resecentr","private_code":"111","transport_mode":"rail","stop_place_type":"railStation","weighting":"preferredInterchange","alt_name":"Krylbo resecentrum","abbreviation":"AVKY","owner":"20","sellable":"true"},"category":"sweden_all"}
{"type":"node","id":740000112,"lat":57.357888,"lon":13.736126,"tags":{"name":"Gnosjö station","short_name":"Gnosjö station","private_code":"112","transport_mode":"rail","stop_place_type":"railStation","weighting":"preferredInterchange","alt_name":"Gnosjö station","abbreviation":"GNÖ","owner":"6","sellable":"true"},"category":"sweden_all"}
{"type":"node","id":740000114,"lat":68.358164,"lon":18.78011,"tags":{"name":"Abisko Turist E10","short_name":"Abisko Turist E1","private_code":"114","transport_mode":"rail","stop_place_type":"railStation","weighting":"interchangeAllowed","alt_name":"Abisko Turist E10","abbreviation":"AKT","owner":"25","sellable":"true"},"category":"sweden_all"}
{"type":"node","id":740000115,"lat":63.398982,"lon":13.076524,"tags":{"name":"Åre Resecentrum","short_name":"Åre Resecentrum","private_code":"115","transport_mode":"rail","stop_place_type":"railStation","weighting":"recommendedInterchange","alt_name":"Åre Resecentrum","abbreviation":"ÅRE","owner":"23","sellable":"true"},"category":"sweden_all"}
{"type":"node","id":740000116,"lat":57.076913,"lon":13.265537,"tags":{"name":"Landeryd station","short_name":"Landeryd station","private_code":"116","transport_mode":"rail","stop_place_type":"railStation","weighting":"preferredInterchange","alt_name":"Landeryd station","abbreviation":"LRD","owner":"13","sellable":"true"},"category":"sweden_all"}
{"type":"node","id":740000119,"lat":58.353096,"lon":11.922936,"tags":{"name":"Uddevalla central","short_name":"Uddevalla C","private_code":"119","transport_mode":"rail","stop_place_type":"railStation","weighting":"preferredInterchange","owner":"14","sellable":"true","abbreviation":"UV"},"category":"sweden_all"}
{"type":"node","id":740000120,"lat":55.706384,"lon":13.187015,"tags":{"name":"Lund Centralstation","short_name":"Lund C","private_code":"120","transport_mode":"rail","stop_place_type":"railStation","weighting":"preferredInterchange","alt_name":"Lund Centralstation","abbreviation":"LU","owner":"12","sellable":"true"},"category":"sweden_all"}
{"type":"node","id":740000121,"lat":56.130959,"lon":13.128028,"tags":{"name":"Klippan station","short_name":"Klippan stn","private_code":"121","transport_mode":"rail","stop_place_type":"railStation","weighting":"preferredInterchange","alt_name":"Klippan station","abbreviation":"KL","owner":"12","sellable":"true"},"category":"sweden_all"}
{"type":"node","id":740000122,"lat":57.002944,"lon":14.575719,"tags":{"name":"Moheda station","short_name":"Moheda Station","private_code":"122","transport_mode":"rail","stop_place_type":"railStation","weighting":"preferredInterchange","alt_name":"Moheda station","abbreviation":"MO","owner":"7","sellable":"true"},"category":"sweden_all"}
{"type":"node","id":740000123,"lat":63.171076,"lon":14.637229,"tags":{"name":"Östersund Centralstation","short_name":"Östersund Centra","private_code":"123","transport_mode":"rail","stop_place_type":"railStation","weighting":"recommendedInterchange","alt_name":"Östersund Centralstation","abbreviation":"ÖS","owner":"23","sellable":"true"},"category":"sweden_all"}
{"type":"node","id":740000126,"lat":63.342649,"lon":13.472366,"tags":{"name":"Järpen järnvägsstation","short_name":"Järpen jvst","private_code":"126","transport_mode":"rail","stop_place_type":"railStation","weighting":"interchangeAllowed","alt_name":"Järpen järnvägsstation","abbreviation":"JPN","owner":"23","sellable":"true"},"category":"sweden_all"}
{"type":"node","id":740000128,"lat":61.350786,"lon":16.393052,"tags":{"name":"Bollnäs jvstn","short_name":"Bollnäs jvstn","private_code":"128","transport_mode":"rail","stop_place_type":"railStation","weighting":"preferredInterchange","alt_name":"Bollnäs jvstn","abbreviation":"BN","owner":"21","sellable":"true"},"category":"sweden_all"}
{"type":"node","id":740000129,"lat":59.229313,"lon":14.441042,"tags":{"name":"Degerfors jvstn","short_name":"Degerfors jvstn","private_code":"129","transport_mode":"rail","stop_place_type":"railStation","weighting":"recommendedInterchange","alt_name":"Degerfors jvstn","abbreviation":"DG","owner":"18","sellable":"true"},"category":"sweden_all"}
{"type":"node","id":740000130,"lat":62.387237,"lon":17.316055,"tags":{"name":"Sundsvall Centralstation","private_code":"130","transport_mode":"rail","stop_place_type":"railStation","weighting":"interchangeAllowed","owner":"22","sellable":"true","abbreviation":"SUC"},"category":"sweden_all"}
{"type":"node","id":740000132,"lat":57.741066,"lon":12.103657,"tags":{"name":"Partille station","short_name":"Partille station","private_code":"132","transport_mode":"rail","stop_place_type":"railStation","weighting":"preferredInterchange","alt_name":"Partille station","abbreviation":"P","owner":"14","sellable":"true"},"category":"sweden_all"}
{"type":"node","id":740000133,"lat":59.277438,"lon":15.210546,"tags":{"name":"Örebro Centralstation","short_name":"Resecentrum","private_code":"133","transport_mode":"rail","stop_place_type":"railStation","weighting":"preferredInterchange","alt_name":"Örebro Centralstation","abbreviation":"ÖR","owner":"18","sellable":"true"},"category":"sweden_all"}
{"type":"node","id":740000135,"lat":59.958462,"lon":16.009393,"tags":{"name":"Ängelsbergs Jvstn","short_name":"Ängelsberg Jvstn","private_code":"135","transport_mode":"rail","stop_place_type":"railStation","weighting":"interchangeAllowed","alt_name":"Ängelsbergs Jvstn","abbreviation":"ÄBG","owner":"19","sellable":"true"},"category":"sweden_all"}
{"type":"node","id":740000138,"lat":55.480082,"lon":13.498144,"tags":{"name":"Skurup station","short_name":"Skurup stn","private_code":"138","transport_mode":"rail","stop_place_type":"railStation","weighting":"preferredInterchange","alt_name":"Skurup station","abbreviation":"SRP","owner":"12","sellable":"true"},"category":"sweden_all"}
{"type":"node","id":740000140,"lat":57.653001,"lon":14.69363,"tags":{"name":"Nässjö Resecentrum","short_name":"Nässjö Resecentr","private_code":"140","transport_mode":"rail","stop_place_type":"railStation","weighting":"preferredInterchange","alt_name":"Nässjö Resecentrum","abbreviation":"N","owner":"6","sellable":"true"},"category":"sweden_all"}
{"type":"node","id":740000141,"lat":56.067266,"lon":14.479264,"tags":{"name":"Bromölla station","short_name":"Bromölla stn","private_code":"141","transport_mode":"rail","stop_place_type":"railStation","weighting":"preferredInterchange","alt_name":"Bromölla station","abbreviation":"BML","owner":"12","sellable":"true"},"category":"sweden_all"}
{"type":"node","id":740000142,"lat":63.315227,"lon":13.238472,"tags":{"name":"Undersåker järnvägsstation","short_name":"Undersåker jvst","private_code":"142","transport_mode":"rail","stop_place_type":"railStation","weighting":"recommendedInterchange","alt_name":"Undersåker järnvägsstation","abbreviation":"UN","owner":"23","sellable":"true"},"category":"sweden_all"}
{"type":"node","id":740000143,"lat":57.883204,"lon":13.015123,"tags":{"name":"Borgstena station","short_name":"Borgstena stn","private_code":"143","transport_mode":"rail","stop_place_type":"railStation","weighting":"recommendedInterchange","alt_name":"Borgstena station","abbreviation":"BOA","owner":"14","sellable":"true"},"category":"sweden_all"}
{"type":"node","id":740000144,"lat":65.584124,"lon":22.165185,"tags":{"name":"Luleå Centralstation","short_name":"Luleå C","private_code":"144","transport_mode":"rail","stop_place_type":"railStation","weighting":"interchangeAllowed","alt_name":"Luleå Centralstation","abbreviation":"LE","owner":"25","sellable":"true"},"category":"sweden_all"}
{"type":"node","id":740000145,"lat":56.786283,"lon":14.456927,"tags":{"name":"Vislanda station","short_name":"Vislanda station","private_code":"145","transport_mode":"rail","stop_place_type":"railStation","weighting":"preferredInterchange","alt_name":"Vislanda station","abbreviation":"VS","owner":"7","sellable":"true"},"category":"sweden_all"}
{"type":"node","id":740000146,"lat":61.715453,"lon":16.171515,"tags":{"name":"Järvsö station","short_name":"Järvsö jvstn","private_code":"146","transport_mode":"rail","stop_place_type":"railStation","weighting":"preferredInterchange","alt_name":"Järvsö station","abbreviation":"JR","owner":"21","sellable":"true"},"category":"sweden_all"}
{"type":"node","id":740000148,"lat":58.504478,"lon":13.1642,"tags":{"name":"Lidköpings resecentrum","short_name":"Lidköpings resec","private_code":"148","transport_mode":"rail","stop_place_type":"railStation","weighting":"preferredInterchange","alt_name":"Lidköpings resecentrum","abbreviation":"LKP","owner":"14","sellable":"true"},"category":"sweden_all"}
{"type":"node","id":740000149,"lat":59.178443,"lon":17.432165,"tags":{"name":"Nykvarns station","short_name":"Nykvarns station","private_code":"149","transport_mode":"rail","stop_place_type":"railStation","weighting":"interchangeAllowed","alt_name":"Nykvarns station","abbreviation":"NKV","owner":"1","sellable":"true"},"category":"sweden_all"}
{"type":"node","id":740000150,"lat":65.82873,"lon":21.707011,"tags":{"name":"Boden Resecentrum Tät","short_name":"Boden Resecentru","private_code":"150","transport_mode":"rail","stop_place_type":"railStation","weighting":"interchangeAllowed","alt_name":"Boden Resecentrum Tät","abbreviation":"BDN","owner":"25","sellable":"true"},"category":"sweden_all"}
{"type":"node","id":740000151,"lat":68.348641,"lon":18.830346,"tags":{"name":"Abisko östra","short_name":"Abisko Ö","private_code":"59149","transport_mode":"rail","stop_place_type":"railStation","weighting":"interchangeAllowed","alt_name":"Abisko östra","abbreviation":"AK","owner":"25","sellable":"true"},"category":"sweden_all"}
{"type":"node","id":740000153,"lat":63.308898,"lon":13.657063,"tags":{"name":"Mörsil järnvägsstation","short_name":"Mörsil jvst","private_code":"153","transport_mode":"rail","stop_place_type":"railStation","weighting":"interchangeAllowed","alt_name":"Mörsil järnvägsstation","abbreviation":"MI","owner":"23","sellable":"true"},"category":"sweden_all"}
{"type":"node","id":740000154,"lat":61.29894,"lon":17.033247,"tags":{"name":"Söderhamn resecentrum","short_name":"Söderhamn resece","private_code":"154","transport_mode":"rail","stop_place_type":"railStation","weighting":"preferredInterchange","alt_name":"Söderhamn resecentrum","abbreviation":"SHV","owner":"21","sellable":"true"},"category":"sweden_all"}
{"type":"node","id":740000155,"lat":56.134302,"lon":12.949692,"tags":{"name":"Åstorp station","short_name":"Åstorp stn","private_code":"155","transport_mode":"rail","stop_place_type":"railStation","weighting":"interchangeAllowed","alt_name":"Åstorp station","abbreviation":"ÅP","owner":"12","sellable":"true"},"category":"sweden_all"}
{"type":"node","id":740000156,"lat":65.677972,"lon":20.994974,"tags":{"name":"Älvsbyn Resecentrum","short_name":"Älvsbyn Resecent","private_code":"156","transport_mode":"rail","stop_place_type":"railStation","weighting":"interchangeAllowed","alt_name":"Älvsbyn Resecentrum","abbreviation":"ÄY","owner":"25","sellable":"true"},"category":"sweden_all"}
{"type":"node","id":740000158,"lat":60.885305,"lon":15.115734,"tags":{"name":"Rättvik resecentrum","short_name":"Rättvik resecent","private_code":"158","transport_mode":"rail","stop_place_type":"railStation","weighting":"preferredInterchange","alt_name":"Rättvik resecentrum","abbreviation":"RV","owner":"20","sellable":"true"},"category":"sweden_all"}
{"type":"node","id":740000159,"lat":57.629287,"lon":12.845572,"tags":{"name":"Viskafors station","short_name":"Viskafors stn","private_code":"159","transport_mode":"rail","stop_place_type":"railStation","weighting":"recommendedInterchange","alt_name":"Viskafors station","abbreviation":"VFO","owner":"14","sellable":"true"},"category":"sweden_all"}
{"type":"node","id":740000160,"lat":60.482623,"lon":15.42696,"tags":{"name":"Borlänge resecentrum","short_name":"Borlänge resecen","private_code":"160","transport_mode":"rail","stop_place_type":"railStation","weighting":"preferredInterchange","alt_name":"Borlänge resecentrum","abbreviation":"BLGC","owner":"20","sellable":"true"},"category":"sweden_all"}
{"type":"node","id":740000161,"lat":57.491155,"lon":12.079887,"tags":{"name":"Kungsbacka station","short_name":"Kungsbacka","private_code":"161","transport_mode":"rail","stop_place_type":"railStation","weighting":"preferredInterchange","alt_name":"Kungsbacka station","abbreviation":"KB","owner":"13","sellable":"true"},"category":"sweden_all"}
{"type":"node","id":740000162,"lat":60.076037,"lon":15.005543,"tags":{"name":"Grängesberg jvstn","short_name":"Grängesberg järn","private_code":"162","transport_mode":"rail","stop_place_type":"railStation","weighting":"preferredInterchange","alt_name":"Grängesberg jvstn","abbreviation":"GG","owner":"20","sellable":"true"},"category":"sweden_all"}
{"type":"node","id":740000163,"lat":62.64714,"lon":14.374512,"tags":{"name":"Åsarna central","short_name":"Åsarna C","private_code":"59220","transport_mode":"rail","stop_place_type":"railStation","weighting":"interchangeAllowed","alt_name":"Åsarna central","abbreviation":"ÅSAL","owner":"23","sellable":"true"},"category":"sweden_all"}
{"type":"node","id":740000164,"lat":57.4288,"lon":14.090759,"tags":{"name":"Skillingaryd station","short_name":"Skillingaryd sta","private_code":"164","transport_mode":"rail","stop_place_type":"railStation","weighting":"recommendedInterchange","alt_name":"Skillingaryd station","abbreviation":"SYD","owner":"6","sellable":"true"},"category":"sweden_all"}
{"type":"node","id":740000165,"lat":63.350609,"lon":14.263058,"tags":{"name":"Nälden","short_name":"Nälden","private_code":"165","transport_mode":"rail","stop_place_type":"railStation","weighting":"interchangeAllowed","alt_name":"Nälden","abbreviation":"NÄ","owner":"23","sellable":"true"},"category":"sweden_all"}
{"type":"node","id":740000166,"lat":58.996418,"lon":16.206705,"tags":{"name":"Katrineholm Resecentrum","short_name":"Resecentrum","private_code":"166","transport_mode":"rail","stop_place_type":"railStation","weighting":"preferredInterchange","alt_name":"Katrineholm Resecentrum","abbreviation":"K","owner":"4","sellable":"true"},"category":"sweden_all"}
{"type":"node","id":740000167,"lat":59.506768,"lon":16.005295,"tags":{"name":"Köping Jvstn","short_name":"Järnvägsstatione","private_code":"167","transport_mode":"rail","stop_place_type":"railStation","weighting":"preferredInterchange","alt_name":"Köping Jvstn","abbreviation":"KP","owner":"19","sellable":"true"},"category":"sweden_all"}
{"type":"node","id":740000169,"lat":55.554461,"lon":14.352913,"tags":{"name":"Simrishamn station","short_name":"Simrishamn","private_code":"169","transport_mode":"rail","stop_place_type":"railStation","weighting":"preferredInterchange","alt_name":"Simrishamn station","abbreviation":"SI","owner":"12","sellable":"true"},"category":"sweden_all"}
{"type":"node","id":740000170,"lat":59.369857,"lon":16.504623,"tags":{"name":"Eskilstuna Centralstation","short_name":"Resecentrum","private_code":"170","transport_mode":"rail","stop_place_type":"railStation","weighting":"preferredInterchange","alt_name":"Eskilstuna Centralstation","abbreviation":"ET","owner":"4","sellable":"true"},"category":"sweden_all"}
{"type":"node","id":740000171,"lat":57.705272,"lon":14.326193,"tags":{"name":"Tenhult station","short_name":"Tenhult station","private_code":"171","transport_mode":"rail","stop_place_type":"railStation","weighting":"preferredInterchange","alt_name":"Tenhult station","abbreviation":"TH","owner":"6","sellable":"true"},"category":"sweden_all"}
{"type":"node","id":740000172,"lat":58.537411,"lon":15.047813,"tags":{"name":"Motala Central","short_name":"Motala Central","private_code":"172","transport_mode":"rail","stop_place_type":"railStation","weighting":"preferredInterchange","alt_name":"Motala Central","abbreviation":"MOT","owner":"5","sellable":"true"},"category":"sweden_all"}
{"type":"node","id":740000173,"lat":58.359417,"lon":12.274135,"tags":{"name":"Öxnered station","short_name":"Öxnered stn","private_code":"173","transport_mode":"rail","stop_place_type":"railStation","weighting":"recommendedInterchange","owner":"14","sellable":"true","abbreviation":"ÖX"},"category":"sweden_all"}
{"type":"node","id":740000179,"lat":56.104928,"lon":13.916541,"tags":{"name":"Vinslöv station","short_name":"Vinslöv station","private_code":"179","transport_mode":"rail","stop_place_type":"railStation","weighting":"recommendedInterchange","alt_name":"Vinslöv station","abbreviation":"VÖV","owner":"12","sellable":"true"},"category":"sweden_all"}
{"type":"node","id":740000180,"lat":58.322435,"lon":15.132219,"tags":{"name":"Mjölby resecentrum","short_name":"Mjölby resecentr","private_code":"180","transport_mode":"rail","stop_place_type":"railStation","weighting":"preferredInterchange","alt_name":"Mjölby resecentrum","abbreviation":"MY","owner":"5","sellable":"true"},"category":"sweden_all"}
{"type":"node","id":740000181,"lat":63.908755,"lon":19.750704,"tags":{"name":"Vännäs Resecentrum","short_name":"Vännäs Resecentr","private_code":"181","transport_mode":"rail","stop_place_type":"railStation","weighting":"preferredInterchange","alt_name":"Vännäs Resecentrum","abbreviation":"VNS","owner":"24","sellable":"true"},"category":"sweden_all"}
{"type":"node","id":740000183,"lat":58.706108,"lon":14.128479,"tags":{"name":"Töreboda resecentrum (tåg)","short_name":"Töreboda RC","private_code":"183","transport_mode":"rail","stop_place_type":"railStation","weighting":"preferredInterchange","alt_name":"Töreboda resecentrum (tåg)","abbreviation":"T","owner":"14","sellable":"true"},"category":"sweden_all"}
{"type":"node","id":740000184,"lat":59.835122,"lon":13.148568,"tags":{"name":"Sunne Resecentrum","short_name":"Sunne Resecentru","private_code":"184","transport_mode":"rail","stop_place_type":"railStation","weighting":"preferredInterchange","alt_name":"Sunne Resecentrum","abbreviation":"SUN","owner":"17","sellable":"true"},"category":"sweden_all"}
{"type":"node","id":740000185,"lat":55.936896,"lon":13.540878,"tags":{"name":"Höör station","short_name":"Höör station","private_code":"185","transport_mode":"rail","stop_place_type":"railStation","weighting":"preferredInterchange","alt_name":"Höör station","abbreviation":"HÖ","owner":"12","sellable":"true"},"category":"sweden_all"}
{"type":"node","id":740000186,"lat":59.83263,"lon":15.692642,"tags":{"name":"Skinnskatteberg jvstn","short_name":"Skinnskatteberg","private_code":"186","transport_mode":"rail","stop_place_type":"railStation","weighting":"preferredInterchange","alt_name":"Skinnskatteberg jvstn","abbreviation":"SKB","owner":"19","sellable":"true"},"category":"sweden_all"}
{"type":"node","id":740000187,"lat":61.724895,"lon":17.10843,"tags":{"name":"Hudiksvalls station","short_name":"Hudiksvalls stat","private_code":"187","transport_mode":"rail","stop_place_type":"railStation","weighting":"preferredInterchange","alt_name":"Hudiksvalls station","abbreviation":"HKL","owner":"21","sellable":"true"},"category":"sweden_all"}
{"type":"node","id":740000189,"lat":56.742387,"lon":15.908042,"tags":{"name":"Nybro station","short_name":"Nybro station","private_code":"189","transport_mode":"rail","stop_place_type":"railStation","weighting":"preferredInterchange","alt_name":"Nybro station","abbreviation":"NYB","owner":"8","sellable":"true"},"category":"sweden_all"}
{"type":"node","id":740000190,"lat":63.830182,"lon":20.26608,"tags":{"name":"Umeå Centralstation","short_name":"Umeå Central","private_code":"190","transport_mode":"rail","stop_place_type":"railStation","weighting":"preferredInterchange","alt_name":"Umeå Centralstation","abbreviation":"UÅ","owner":"24","sellable":"true"},"category":"sweden_all"}
{"type":"node","id":740000191,"lat":58.287772,"lon":12.298775,"tags":{"name":"Trollhättan station","short_name":"Trollhättan st","private_code":"191","transport_mode":"rail","stop_place_type":"railStation","weighting":"preferredInterchange","owner":"14","sellable":"true","abbreviation":"THN"},"category":"sweden_all"}
{"type":"node","id":740000192,"lat":59.126464,"lon":15.140417,"tags":{"name":"Kumla resecentrum","short_name":"Kumla resec","private_code":"192","transport_mode":"rail","stop_place_type":"railStation","weighting":"preferredInterchange","alt_name":"Kumla resecentrum","abbreviation":"KLA","owner":"18","sellable":"true"},"category":"sweden_all"}
{"type":"node","id":740000194,"lat":58.989116,"lon":14.616945,"tags":{"name":"Laxå jvstn","short_name":"Laxå jvstn","private_code":"194","transport_mode":"rail","stop_place_type":"railStation","weighting":"preferredInterchange","alt_name":"Laxå jvstn","abbreviation":"LÅ","owner":"18","sellable":"true"},"category":"sweden_all"}
{"type":"node","id":740000195,"lat":60.614817,"lon":16.778771,"tags":{"name":"Sandviken resecentrum","short_name":"Sandviken resece","private_code":"195","transport_mode":"rail","stop_place_type":"railStation","weighting":"preferredInterchange","alt_name":"Sandviken resecentrum","abbreviation":"SNV","owner":"21","sellable":"true"},"category":"sweden_all"}
{"type":"node","id":740000196,"lat":59.872677,"lon":16.084796,"tags":{"name":"Virsbo Jvstn","short_name":"Virsbo Jvstn","private_code":"196","transport_mode":"rail","stop_place_type":"railStation","weighting":"preferredInterchange","alt_name":"Virsbo Jvstn","abbreviation":"VSO","owner":"19","sellable":"true"},"category":"sweden_all"}
{"type":"node","id":740000198,"lat":61.826583,"lon":16.098123,"tags":{"name":"Ljusdals resecentrum","short_name":"Ljusdals resecen","private_code":"198","transport_mode":"rail","stop_place_type":"railStation","weighting":"preferredInterchange","alt_name":"Ljusdals resecentrum","abbreviation":"LS","owner":"21","sellable":"true"},"category":"sweden_all"}
{"type":"node","id":740000200,"lat":56.031875,"lon":14.151364,"tags":{"name":"Kristianstad Centralstation","short_name":"Kristianstad C","private_code":"200","transport_mode":"rail","stop_place_type":"railStation","weighting":"preferredInterchange","alt_name":"Kristianstad Centralstation","abbreviation":"CR","owner":"12","sellable":"true"},"category":"sweden_all"}
{"type":"node","id":740000201,"lat":57.55224079710402,"lon":15.72003210390261,"tags":{"name":"Lönneberga","short_name":"Lönneberga","private_code":"59182","transport_mode":"rail","stop_place_type":"railStation","weighting":"interchangeAllowed","alt_name":"Lönneberga","abbreviation":"LÖN","owner":"8","sellable":"false"},"category":"sweden_all"}
{"type":"node","id":740000202,"lat":60.676005,"lon":15.094004,"tags":{"name":"Insjön TÅG","short_name":"Insjön järnvägss","private_code":"202","transport_mode":"rail","stop_place_type":"railStation","weighting":"recommendedInterchange","owner":"20","sellable":"true","abbreviation":"IN"},"category":"sweden_all"}
{"type":"node","id":740000203,"lat":57.809673,"lon":12.361202,"tags":{"name":"Floda station","short_name":"Floda station","private_code":"203","transport_mode":"rail","stop_place_type":"railStation","weighting":"preferredInterchange","alt_name":"Floda station","abbreviation":"FD","owner":"14","sellable":"true"},"category":"sweden_all"}
{"type":"node","id":740000204,"lat":57.54267697884414,"lon":15.742764074676256,"tags":{"name":"Silverdalens centrum","short_name":"Silverdalen","private_code":"59202","transport_mode":"rail","stop_place_type":"railStation","weighting":"interchangeAllowed","alt_name":"Silverdalens centrum","abbreviation":"SIC|SID","owner":"8","sellable":"false"},"category":"sweden_all"}
{"type":"node","id":740000205,"lat":57.656767,"lon":12.117575,"tags":{"name":"Mölnlycke station","short_name":"Mölnlycke statio","private_code":"205","transport_mode":"rail","stop_place_type":"railStation","weighting":"preferredInterchange","alt_name":"Mölnlycke station","abbreviation":"MYK","owner":"14","sellable":"true"},"category":"sweden_all"}
{"type":"node","id":740000206,"lat":59.50486,"lon":13.316795,"tags":{"name":"Kil Resecentrum","short_name":"Kil Resecentrum","private_code":"206","transport_mode":"rail","stop_place_type":"railStation","weighting":"preferredInterchange","alt_name":"Kil Resecentrum","abbreviation":"KIL","owner":"17","sellable":"true"},"category":"sweden_all"}
{"type":"node","id":740000207,"lat":57.704505,"lon":12.451588,"tags":{"name":"Hindås station","short_name":"Hindås station","private_code":"207","transport_mode":"rail","stop_place_type":"railStation","weighting":"preferredInterchange","alt_name":"Hindås station","abbreviation":"HÅS","owner":"14","sellable":"true"},"category":"sweden_all"}
{"type":"node","id":740000208,"lat":68.42883,"lon":18.2604,"tags":{"name":"Vassijaure station","private_code":"208","transport_mode":"rail","stop_place_type":"railStation","weighting":"interchangeAllowed","owner":"25","sellable":"true","abbreviation":"VJ"},"category":"sweden_all"}
{"type":"node","id":740000209,"lat":57.32234572202892,"lon":15.875579260453977,"tags":{"name":"Mörlunda","short_name":"Mörlunda","private_code":"59188","transport_mode":"rail","stop_place_type":"railStation","weighting":"interchangeAllowed","alt_name":"Mörlunda","abbreviation":"MÖA","owner":"8","sellable":"true"},"category":"sweden_all"}
{"type":"node","id":740000210,"lat":60.67604,"lon":17.151052,"tags":{"name":"Gävle Centralstation","short_name":"Gävle Central","private_code":"210","transport_mode":"rail","stop_place_type":"railStation","weighting":"preferredInterchange","alt_name":"Gävle Centralstation","abbreviation":"GÄ","owner":"21","sellable":"true"},"category":"sweden_all"}
{"type":"node","id":740000212,"lat":57.175797,"lon":13.593413,"tags":{"name":"Reftele station","short_name":"Reftele station","private_code":"212","transport_mode":"rail","stop_place_type":"railStation","weighting":"preferredInterchange","alt_name":"Reftele station","abbreviation":"RFT","owner":"6","sellable":"true"},"category":"sweden_all"}
{"type":"node","id":740000214,"lat":59.924961,"lon":16.605446,"tags":{"name":"Sala Resecentrum","short_name":"Sala Resecentrum","private_code":"214","transport_mode":"rail","stop_place_type":"railStation","weighting":"preferredInterchange","alt_name":"Sala Resecentrum","abbreviation":"SL","owner":"19","sellable":"true"},"category":"sweden_all"}
{"type":"node","id":740000215,"lat":57.914828,"lon":13.881874,"tags":{"name":"Mullsjö Resecentrum","short_name":"Mullsjö Resecent","private_code":"215","transport_mode":"rail","stop_place_type":"railStation","weighting":"preferredInterchange","alt_name":"Mullsjö Resecentrum","abbreviation":"MU","owner":"6","sellable":"true"},"category":"sweden_all"}
{"type":"node","id":740000216,"lat":58.711949,"lon":13.824589,"tags":{"name":"Mariestad resecentrum","short_name":"Mariestad resec","private_code":"216","transport_mode":"rail","stop_place_type":"railStation","weighting":"preferredInterchange","alt_name":"Mariestad resecentrum","abbreviation":"MST","owner":"14","sellable":"true"},"category":"sweden_all"}
{"type":"node","id":740000217,"lat":59.352536,"lon":13.112798,"tags":{"name":"Grums Resecentrum","short_name":"Grums resecentru","private_code":"217","transport_mode":"rail","stop_place_type":"railStation","weighting":"preferredInterchange","alt_name":"Grums Resecentrum","abbreviation":"GMS","owner":"17","sellable":"true"},"category":"sweden_all"}
{"type":"node","id":740000218,"lat":60.569769,"lon":16.266145,"tags":{"name":"Hofors station","short_name":"Hofors station","private_code":"218","transport_mode":"rail","stop_place_type":"railStation","weighting":"preferredInterchange","alt_name":"Hofors station","abbreviation":"HFR","owner":"21","sellable":"true"},"category":"sweden_all"}
{"type":"node","id":740000219,"lat":64.306129,"lon":19.625469,"tags":{"name":"Hällnäs Station","short_name":"Hällnäs Station","private_code":"219","transport_mode":"rail","stop_place_type":"railStation","weighting":"interchangeAllowed","alt_name":"Hällnäs Station","abbreviation":"HLS","owner":"24","sellable":"true"},"category":"sweden_all"}
{"type":"node","id":740000220,"lat":62.928233,"lon":17.779697,"tags":{"name":"Kramfors ReseC","private_code":"220","transport_mode":"rail","stop_place_type":"railStation","weighting":"interchangeAllowed","owner":"22","sellable":"true","abbreviation":"KRF"},"category":"sweden_all"}
{"type":"node","id":740000221,"lat":59.65374,"lon":12.591737,"tags":{"name":"Arvika Järnvägsstationen","short_name":"Arvika Järnvägss","private_code":"221","transport_mode":"rail","stop_place_type":"railStation","weighting":"preferredInterchange","alt_name":"Arvika Järnvägsstationen","abbreviation":"AR","owner":"17","sellable":"true"},"category":"sweden_all"}
{"type":"node","id":740000222,"lat":59.316542,"lon":14.108061,"tags":{"name":"Kristinehamn Resecentrum","short_name":"Kristinehamn res","private_code":"222","transport_mode":"rail","stop_place_type":"railStation","weighting":"preferredInterchange","alt_name":"Kristinehamn Resecentrum","abbreviation":"KHN","owner":"17","sellable":"true"},"category":"sweden_all"}
{"type":"node","id":740000225,"lat":57.17354,"lon":12.300663,"tags":{"name":"Tofta station","short_name":"Tofta station","private_code":"225","transport_mode":"rail","stop_place_type":"railStation","weighting":"recommendedInterchange","alt_name":"Tofta station","abbreviation":"TOF","owner":"13","sellable":"true"},"category":"sweden_all"}
{"type":"node","id":740000228,"lat":63.325399,"lon":14.448502,"tags":{"name":"Krokom järnvägsstation","short_name":"Krokom jvst","private_code":"228","transport_mode":"rail","stop_place_type":"railStation","weighting":"recommendedInterchange","alt_name":"Krokom järnvägsstation","abbreviation":"KRM","owner":"23","sellable":"true"},"category":"sweden_all"}
{"type":"node","id":740000229,"lat":68.42572,"lon":18.12742,"tags":{"name":"Riksgränsen station","private_code":"229","transport_mode":"rail","stop_place_type":"railStation","weighting":"interchangeAllowed","owner":"25","sellable":"true","abbreviation":"RGN"},"category":"sweden_all"}
{"type":"node","id":740000230,"lat":56.166671,"lon":15.585368,"tags":{"name":"Karlskrona Centralstation","short_name":"Karlskrona centr","private_code":"230","transport_mode":"rail","stop_place_type":"railStation","weighting":"preferredInterchange","alt_name":"Karlskrona Centralstation","abbreviation":"CK","owner":"10","sellable":"true"},"category":"sweden_all"}
{"type":"node","id":740000231,"lat":57.906604,"lon":14.076783,"tags":{"name":"Habo station","short_name":"Habo station","private_code":"231","transport_mode":"rail","stop_place_type":"railStation","weighting":"preferredInterchange","alt_name":"Habo station","abbreviation":"HO","owner":"6","sellable":"true"},"category":"sweden_all"}
{"type":"node","id":740000232,"lat":57.498322,"lon":14.145133,"tags":{"name":"Vaggeryd station","short_name":"Vaggeryd station","private_code":"232","transport_mode":"rail","stop_place_type":"railStation","weighting":"preferredInterchange","alt_name":"Vaggeryd station","abbreviation":"VGD","owner":"6","sellable":"true"},"category":"sweden_all"}
{"type":"node","id":740000233,"lat":58.713697,"lon":11.295695,"tags":{"name":"Tanum station","short_name":"Tanum station","private_code":"233","transport_mode":"rail","stop_place_type":"railStation","weighting":"preferredInterchange","alt_name":"Tanum station","abbreviation":"TNU","owner":"14","sellable":"true"},"category":"sweden_all"}
{"type":"node","id":740000235,"lat":56.749735,"lon":15.259642,"tags":{"name":"Lessebo station","short_name":"Lessebo station","private_code":"235","transport_mode":"rail","stop_place_type":"railStation","weighting":"preferredInterchange","alt_name":"Lessebo station","abbreviation":"LO","owner":"7","sellable":"true"},"category":"sweden_all"}
{"type":"node","id":740000238,"lat":57.654424,"lon":12.500179,"tags":{"name":"Rävlanda station","short_name":"Rävlanda station","private_code":"238","transport_mode":"rail","stop_place_type":"railStation","weighting":"preferredInterchange","alt_name":"Rävlanda station","abbreviation":"RD","owner":"14","sellable":"true"},"category":"sweden_all"}
{"type":"node","id":740000239,"lat":64.203334,"lon":19.713907,"tags":{"name":"Vindeln Resecentrum","short_name":"Vindeln Resecent","private_code":"239","transport_mode":"rail","stop_place_type":"railStation","weighting":"preferredInterchange","alt_name":"Vindeln Resecentrum","abbreviation":"VDN","owner":"24","sellable":"true"},"category":"sweden_all"}
{"type":"node","id":740000241,"lat":58.377559,"lon":12.318324,"tags":{"name":"Vänersborg central","short_name":"Vänersborg C","private_code":"241","transport_mode":"rail","stop_place_type":"railStation","weighting":"preferredInterchange","owner":"14","sellable":"true","abbreviation":"VG"},"category":"sweden_all"}
{"type":"node","id":740000242,"lat":62.486153,"lon":17.329916,"tags":{"name":"Timrå jvg","private_code":"242","transport_mode":"rail","stop_place_type":"railStation","weighting":"interchangeAllowed","owner":"22","sellable":"true","abbreviation":"TRÅ"},"category":"sweden_all"}
{"type":"node","id":740000243,"lat":57.66783,"lon":12.570644,"tags":{"name":"Bollebygd busstation","short_name":"Bollebygd busstn","private_code":"243","transport_mode":"rail","stop_place_type":"railStation","weighting":"preferredInterchange","alt_name":"Bollebygd busstation","abbreviation":"BOY","owner":"14","sellable":"true"},"category":"sweden_all"}
{"type":"node","id":740000244,"lat":60.582487,"lon":16.534628,"tags":{"name":"Storvik station","short_name":"Storvik jvstn","private_code":"244","transport_mode":"rail","stop_place_type":"railStation","weighting":"interchangeAllowed","alt_name":"Storvik station","abbreviation":"SV","owner":"21","sellable":"true"},"category":"sweden_all"}
{"type":"node","id":740000245,"lat":57.986749,"lon":13.053379,"tags":{"name":"Ljung station","short_name":"Ljung station","private_code":"245","transport_mode":"rail","stop_place_type":"railStation","weighting":"recommendedInterchange","owner":"14","sellable":"true","abbreviation":"LJU"},"category":"sweden_all"}
{"type":"node","id":740000250,"lat":56.87698,"lon":14.806143,"tags":{"name":"Växjö station","short_name":"Växjö station","private_code":"250","transport_mode":"rail","stop_place_type":"railStation","weighting":"preferredInterchange","alt_name":"Växjö station","abbreviation":"VÖ","owner":"7","sellable":"true"},"category":"sweden_all"}
{"type":"node","id":740000252,"lat":57.513955,"lon":14.275592,"tags":{"name":"Hok station","short_name":"Hok station","private_code":"252","transport_mode":"rail","stop_place_type":"railStation","weighting":"recommendedInterchange","alt_name":"Hok station","abbreviation":"HOK","owner":"6","sellable":"true"},"category":"sweden_all"}
{"type":"node","id":740000253,"lat":62.634786,"lon":17.928882,"tags":{"name":"Härnösand Central","private_code":"253","transport_mode":"rail","stop_place_type":"railStation","weighting":"interchangeAllowed","owner":"22","sellable":"true","abbreviation":"HSD"},"category":"sweden_all"}
{"type":"node","id":740000254,"lat":67.133843,"lon":20.651529,"tags":{"name":"Gällivare C/Resecentrum","short_name":"Gällivare Resece","private_code":"254","transport_mode":"rail","stop_place_type":"railStation","weighting":"preferredInterchange","alt_name":"Gällivare C/Resecentrum","abbreviation":"GV|GVC","owner":"25","sellable":"true"},"category":"sweden_all"}
{"type":"node","id":740000258,"lat":56.457996,"lon":13.593725,"tags":{"name":"Markaryd station","short_name":"Markaryd station","private_code":"258","transport_mode":"rail","stop_place_type":"railStation","weighting":"preferredInterchange","alt_name":"Markaryd station","abbreviation":"MRD","owner":"7","sellable":"true"},"category":"sweden_all"}
{"type":"node","id":740000260,"lat":55.837448,"lon":13.305171,"tags":{"name":"Eslöv station","short_name":"Eslöv stn","private_code":"260","transport_mode":"rail","stop_place_type":"railStation","weighting":"preferredInterchange","alt_name":"Eslöv station","abbreviation":"E","owner":"12","sellable":"true"},"category":"sweden_all"}
{"type":"node","id":740000262,"lat":59.396729,"lon":15.841553,"tags":{"name":"Arboga Resecentrum","short_name":"Arboga Resecentr","private_code":"262","transport_mode":"rail","stop_place_type":"railStation","weighting":"preferredInterchange","alt_name":"Arboga Resecentrum","abbreviation":"ARB","owner":"19","sellable":"true"},"category":"sweden_all"}
{"type":"node","id":740000265,"lat":66.753707,"lon":20.947797,"tags":{"name":"Nattavaara Station","short_name":"Nattavaara Stati","private_code":"265","transport_mode":"rail","stop_place_type":"railStation","weighting":"interchangeAllowed","alt_name":"Nattavaara Station","abbreviation":"NTV","owner":"25","sellable":"true"},"category":"sweden_all"}
{"type":"node","id":740000266,"lat":59.990104,"lon":15.815344,"tags":{"name":"Fagersta Central","short_name":"Fagersta Central","private_code":"266","transport_mode":"rail","stop_place_type":"railStation","weighting":"preferredInterchange","alt_name":"Fagersta Central","abbreviation":"FGC","owner":"19","sellable":"true"},"category":"sweden_all"}
{"type":"node","id":740000268,"lat":66.483539,"lon":20.878342,"tags":{"name":"Murjek Järnvägsstation","short_name":"Murjek Järnvägss","private_code":"268","transport_mode":"rail","stop_place_type":"railStation","weighting":"interchangeAllowed","alt_name":"Murjek Järnvägsstation","abbreviation":"MK","owner":"25","sellable":"true"},"category":"sweden_all"}
{"type":"node","id":740000271,"lat":57.230675,"lon":12.318684,"tags":{"name":"Derome","short_name":"Derome","private_code":"271","transport_mode":"rail","stop_place_type":"railStation","weighting":"recommendedInterchange","owner":"13","sellable":"true","abbreviation":"DRE"},"category":"sweden_all"}
{"type":"node","id":740000272,"lat":57.709676,"lon":12.790704,"tags":{"name":"Sandared station","short_name":"Sandared stn","private_code":"272","transport_mode":"rail","stop_place_type":"railStation","weighting":"recommendedInterchange","alt_name":"Sandared station","abbreviation":"SAE","owner":"14","sellable":"true"},"category":"sweden_all"}
{"type":"node","id":740000274,"lat":60.136567,"lon":13.0018,"tags":{"name":"Torsby Resecentrum","short_name":"Torsby Resecentr","private_code":"274","transport_mode":"rail","stop_place_type":"railStation","weighting":"preferredInterchange","alt_name":"Torsby Resecentrum","abbreviation":"TOY","owner":"17","sellable":"true"},"category":"sweden_all"}
{"type":"node","id":740000277,"lat":60.891841,"lon":16.720786,"tags":{"name":"Ockelbo station","short_name":"Ockelbo jvstn","private_code":"277","transport_mode":"rail","stop_place_type":"railStation","weighting":"preferredInterchange","alt_name":"Ockelbo station","abbreviation":"OB","owner":"21","sellable":"true"},"category":"sweden_all"}
{"type":"node","id":740000280,"lat":59.872946,"lon":14.987008,"tags":{"name":"Kopparbergs jvstn","short_name":"Kopparbergs jvst","private_code":"280","transport_mode":"rail","stop_place_type":"railStation","weighting":"recommendedInterchange","alt_name":"Kopparbergs jvstn","abbreviation":"KPG","owner":"18","sellable":"true"},"category":"sweden_all"}
{"type":"node","id":740000282,"lat":65.054364,"lon":20.030951,"tags":{"name":"Jörn station","short_name":"Jörn Station","private_code":"282","transport_mode":"rail","stop_place_type":"railStation","weighting":"preferredInterchange","alt_name":"Jörn station","abbreviation":"JRN","owner":"24","sellable":"true"},"category":"sweden_all"}
{"type":"node","id":740000283,"lat":58.913193,"lon":11.932099,"tags":{"name":"Ed busstation","short_name":"Ed busstation","private_code":"283","transport_mode":"rail","stop_place_type":"railStation","weighting":"preferredInterchange","alt_name":"Ed busstation","abbreviation":"ED","owner":"14","sellable":"true"},"category":"sweden_all"}
{"type":"node","id":740000284,"lat":59.478001,"lon":17.752902,"tags":{"name":"Kungsängen","short_name":"Kungsängen","private_code":"284","transport_mode":"rail","stop_place_type":"railStation","weighting":"recommendedInterchange","alt_name":"Kungsängen","abbreviation":"KÄN","owner":"1","sellable":"true"},"category":"sweden_all"}
{"type":"node","id":740000285,"lat":57.538651,"lon":12.101359,"tags":{"name":"Anneberg station","short_name":"Anneberg station","private_code":"285","transport_mode":"rail","stop_place_type":"railStation","weighting":"preferredInterchange","alt_name":"Anneberg station","abbreviation":"AG","owner":"13","sellable":"true"},"category":"sweden_all"}
{"type":"node","id":740000286,"lat":57.494454,"lon":12.668828,"tags":{"name":"Assberg station","short_name":"Assberg station","private_code":"286","transport_mode":"rail","stop_place_type":"railStation","weighting":"recommendedInterchange","owner":"14","sellable":"true","abbreviation":"ASB"},"category":"sweden_all"}
{"type":"node","id":740000287,"lat":59.380547,"lon":13.851422,"tags":{"name":"Väse, Stationen","short_name":"Väse station","private_code":"287","transport_mode":"rail","stop_place_type":"railStation","weighting":"interchangeAllowed","alt_name":"Väse, Stationen","abbreviation":"VE","owner":"17","sellable":"true"},"category":"sweden_all"}
{"type":"node","id":740000288,"lat":59.05682,"lon":16.58784,"tags":{"name":"Flen station","short_name":"Flen station","private_code":"288","transport_mode":"rail","stop_place_type":"railStation","weighting":"preferredInterchange","alt_name":"Flen station","abbreviation":"FLE","owner":"4","sellable":"true"},"category":"sweden_all"}
{"type":"node","id":740000289,"lat":57.161591,"lon":13.414989,"tags":{"name":"Smålandsstenar station","short_name":"Smålandsstenar s","private_code":"289","transport_mode":"rail","stop_place_type":"railStation","weighting":"preferredInterchange","alt_name":"Smålandsstenar station","abbreviation":"SDR","owner":"6","sellable":"true"},"category":"sweden_all"}
{"type":"node","id":740000290,"lat":56.15959,"lon":13.599035,"tags":{"name":"Tyringe station","short_name":"Tyringe stn","private_code":"290","transport_mode":"rail","stop_place_type":"railStation","weighting":"recommendedInterchange","alt_name":"Tyringe station","abbreviation":"TY","owner":"12","sellable":"true"},"category":"sweden_all"}
{"type":"node","id":740000291,"lat":60.150273,"lon":15.183684,"tags":{"name":"Ludvika resecentrum","short_name":"Ludvika resecent","private_code":"291","transport_mode":"rail","stop_place_type":"railStation","weighting":"preferredInterchange","alt_name":"Ludvika resecentrum","abbreviation":"LA","owner":"20","sellable":"true"},"category":"sweden_all"}
{"type":"node","id":740000293,"lat":59.467648,"lon":15.362423,"tags":{"name":"Frövi Resecentrum","short_name":"Frövi Resecentru","private_code":"293","transport_mode":"rail","stop_place_type":"railStation","weighting":"recommendedInterchange","alt_name":"Frövi Resecentrum","abbreviation":"FV","owner":"18","sellable":"true"},"category":"sweden_all"}
{"type":"node","id":740000294,"lat":64.789743,"lon":20.042171,"tags":{"name":"Bastuträsk Station","short_name":"Bastuträsk stati","private_code":"294","transport_mode":"rail","stop_place_type":"railStation","weighting":"recommendedInterchange","alt_name":"Bastuträsk Station","abbreviation":"BST","owner":"24","sellable":"true"},"category":"sweden_all"}
{"type":"node","id":740000295,"lat":56.380586,"lon":13.995503,"tags":{"name":"Osby station","short_name":"Osby stn","private_code":"295","transport_mode":"rail","stop_place_type":"railStation","weighting":"preferredInterchange","alt_name":"Osby station","abbreviation":"O","owner":"12","sellable":"true"},"category":"sweden_all"}
{"type":"node","id":740000298,"lat":58.382117,"lon":11.485356,"tags":{"name":"Brastad station","short_name":"Brastad station","private_code":"34028","transport_mode":"rail","stop_place_type":"railStation","weighting":"recommendedInterchange","owner":"14","sellable":"true","abbreviation":"BSA"},"category":"sweden_all"}
{"type":"node","id":740000299,"lat":58.610003,"lon":11.470773,"tags":{"name":"Rabbalshede station","short_name":"Rabbalshede stn","private_code":"299","transport_mode":"rail","stop_place_type":"railStation","weighting":"interchangeAllowed","alt_name":"Rabbalshede station","abbreviation":"RBH","owner":"14","sellable":"true"},"category":"sweden_all"}
{"type":"node","id":740000300,"lat":57.720086,"lon":12.932516,"tags":{"name":"Borås Centralstation","short_name":"Borås resec.","private_code":"300","transport_mode":"rail","stop_place_type":"railStation","weighting":"recommendedInterchange","alt_name":"Borås Centralstation","abbreviation":"BSC","owner":"14","sellable":"true"},"category":"sweden_all"}
{"type":"node","id":740000301,"lat":60.345734,"lon":17.512583,"tags":{"name":"Tierp station (Tierp)","short_name":"Tierp station","private_code":"301","transport_mode":"rail","stop_place_type":"railStation","weighting":"preferredInterchange","alt_name":"Tierp station (Tierp)","abbreviation":"TIP","owner":"3","sellable":"true"},"category":"sweden_all"}
{"type":"node","id":740000302,"lat":61.009001,"lon":14.560175,"tags":{"name":"Mora resecentrum","short_name":"Mora resecentrum","private_code":"302","transport_mode":"rail","stop_place_type":"railStation","weighting":"preferredInterchange","alt_name":"Mora resecentrum","abbreviation":"MRC","owner":"20","sellable":"true"},"category":"sweden_all"}
{"type":"node","id":740000303,"lat":60.560119,"lon":15.137774,"tags":{"name":"Djurås resecentrum","short_name":"Djurås resecentr","private_code":"303","transport_mode":"rail","stop_place_type":"railStation","weighting":"preferredInterchange","alt_name":"Djurås resecentrum","abbreviation":"DÅ","owner":"20","sellable":"true"},"category":"sweden_all"}
{"type":"node","id":740000307,"lat":59.768765,"lon":12.366827,"tags":{"name":"Åmotfors Stationen","short_name":"Åmotfors station","private_code":"307","transport_mode":"rail","stop_place_type":"railStation","weighting":"recommendedInterchange","alt_name":"Åmotfors Stationen","abbreviation":"ÅT","owner":"17","sellable":"true"},"category":"sweden_all"}
{"type":"node","id":740000308,"lat":63.390238,"lon":12.916865,"tags":{"name":"Duved järnvägsstation","short_name":"Duved järnvägsst","private_code":"308","transport_mode":"rail","stop_place_type":"railStation","weighting":"interchangeAllowed","alt_name":"Duved järnvägsstation","abbreviation":"DU","owner":"23","sellable":"true"},"category":"sweden_all"}
{"type":"node","id":740000311,"lat":57.578123,"lon":14.460481,"tags":{"name":"Malmbäck station","short_name":"Malmbäck station","private_code":"311","transport_mode":"rail","stop_place_type":"railStation","weighting":"recommendedInterchange","alt_name":"Malmbäck station","abbreviation":"MBÄ","owner":"6","sellable":"true"},"category":"sweden_all"}
{"type":"node","id":740000312,"lat":56.957429,"lon":13.080208,"tags":{"name":"Torup station","short_name":"Torup station","private_code":"312","transport_mode":"rail","stop_place_type":"railStation","weighting":"interchangeAllowed","alt_name":"Torup station","abbreviation":"TOU","owner":"13","sellable":"true"},"category":"sweden_all"}
{"type":"node","id":740000313,"lat":56.806501,"lon":12.971984,"tags":{"name":"Oskarström","short_name":"Oskarström","private_code":"59191","transport_mode":"rail","stop_place_type":"railStation","weighting":"interchangeAllowed","alt_name":"Oskarström","abbreviation":"OM","owner":"13","sellable":"true"},"category":"sweden_all"}
{"type":"node","id":740000314,"lat":57.488125,"lon":12.647856,"tags":{"name":"Skene busstation","short_name":"Skene bstn","private_code":"314","transport_mode":"rail","stop_place_type":"railStation","weighting":"recommendedInterchange","alt_name":"Skene busstation","abbreviation":"SEE","owner":"14","sellable":"true"},"category":"sweden_all"}
{"type":"node","id":740000315,"lat":57.65605,"lon":12.018859,"tags":{"name":"Mölndal station","short_name":"Mölndal station","private_code":"315","transport_mode":"rail","stop_place_type":"railStation","weighting":"preferredInterchange","alt_name":"Mölndal station","abbreviation":"MDN","owner":"14","sellable":"true"},"category":"sweden_all"}
{"type":"node","id":740000320,"lat":58.145079,"lon":11.935922,"tags":{"name":"Svenshögens station","short_name":"Svenshögens stat","private_code":"320","transport_mode":"rail","stop_place_type":"railStation","weighting":"preferredInterchange","alt_name":"Svenshögens station","abbreviation":"SVG","owner":"14","sellable":"true"},"category":"sweden_all"}
{"type":"node","id":740000321,"lat":59.564305,"lon":16.231683,"tags":{"name":"Kolbäck Jvstn","short_name":"Kolbäck Jvstn","private_code":"321","transport_mode":"rail","stop_place_type":"railStation","weighting":"preferredInterchange","alt_name":"Kolbäck Jvstn","abbreviation":"KBÄ","owner":"19","sellable":"true"},"category":"sweden_all"}
{"type":"node","id":740000322,"lat":60.598294,"lon":15.08148,"tags":{"name":"Gagnef station","short_name":"Gagnef station","private_code":"322","transport_mode":"rail","stop_place_type":"railStation","weighting":"preferredInterchange","alt_name":"Gagnef station","abbreviation":"GNF","owner":"20","sellable":"true"},"category":"sweden_all"}
{"type":"node","id":740000323,"lat":55.546528,"lon":13.949163,"tags":{"name":"Tomelilla station","short_name":"Tomelilla stn","private_code":"323","transport_mode":"rail","stop_place_type":"railStation","weighting":"preferredInterchange","alt_name":"Tomelilla station","abbreviation":"TLI","owner":"12","sellable":"true"},"category":"sweden_all"}
{"type":"node","id":740000324,"lat":62.911291,"lon":15.229137,"tags":{"name":"Gällö järnvägsstation","short_name":"Gällö jvst","private_code":"324","transport_mode":"rail","stop_place_type":"railStation","weighting":"recommendedInterchange","alt_name":"Gällö järnvägsstation","abbreviation":"GÖ","owner":"23","sellable":"true"},"category":"sweden_all"}
{"type":"node","id":740000325,"lat":62.496139,"lon":16.068131,"tags":{"name":"Ljungaverk jvg","private_code":"325","transport_mode":"rail","stop_place_type":"railStation","weighting":"interchangeAllowed","owner":"22","sellable":"true","abbreviation":"LJV"},"category":"sweden_all"}
{"type":"node","id":740000326,"lat":67.542577,"lon":20.103269,"tags":{"name":"Kaitum","short_name":"Kaitum","private_code":"59178","transport_mode":"rail","stop_place_type":"railStation","weighting":"interchangeAllowed","alt_name":"Kaitum","abbreviation":"KTM","owner":"25","sellable":"true"},"category":"sweden_all"}
{"type":"node","id":740000334,"lat":61.118793,"lon":14.620717,"tags":{"name":"Järnvägsgatan (Orsa)","short_name":"Järnvägsgatan","private_code":"334","transport_mode":"rail","stop_place_type":"railStation","weighting":"interchangeAllowed","owner":"20","sellable":"true","abbreviation":"ORS"},"category":"sweden_all"}
{"type":"node","id":740000335,"lat":57.610809,"lon":12.048858,"tags":{"name":"Kållered station","short_name":"Kållered station","private_code":"335","transport_mode":"rail","stop_place_type":"railStation","weighting":"preferredInterchange","alt_name":"Kållered station","abbreviation":"KRD","owner":"14","sellable":"true"},"category":"sweden_all"}
{"type":"node","id":740000338,"lat":58.203439,"lon":16.002547,"tags":{"name":"Åtvidabergs resecentrum","short_name":"Åtvidabergs rese","private_code":"338","transport_mode":"rail","stop_place_type":"railStation","weighting":"preferredInterchange","alt_name":"Åtvidabergs resecentrum","abbreviation":"ÅVG","owner":"5","sellable":"true"},"category":"sweden_all"}
{"type":"node","id":740000339,"lat":57.46742,"lon":12.598706,"tags":{"name":"Berghem station","short_name":"Berghem station","private_code":"339","transport_mode":"rail","stop_place_type":"railStation","weighting":"interchangeAllowed","owner":"14","sellable":"true","abbreviation":"BGM"},"category":"sweden_all"}
{"type":"node","id":740000342,"lat":56.985463,"lon":14.312171,"tags":{"name":"Rydaholm station","short_name":"Rydaholm station","private_code":"342","transport_mode":"rail","stop_place_type":"railStation","weighting":"recommendedInterchange","alt_name":"Rydaholm station","abbreviation":"RYM","owner":"6","sellable":"true"},"category":"sweden_all"}
{"type":"node","id":740000344,"lat":57.985606,"lon":15.633502,"tags":{"name":"Kisa resecentrum","short_name":"Kisa resecentrum","private_code":"344","transport_mode":"rail","stop_place_type":"railStation","weighting":"preferredInterchange","alt_name":"Kisa resecentrum","abbreviation":"KISA","owner":"5","sellable":"true"},"category":"sweden_all"}
{"type":"node","id":740000345,"lat":61.230524,"lon":16.569762,"tags":{"name":"Kilafors station","short_name":"Kilafors jvstn","private_code":"345","transport_mode":"rail","stop_place_type":"railStation","weighting":"preferredInterchange","alt_name":"Kilafors station","abbreviation":"KLS","owner":"21","sellable":"true"},"category":"sweden_all"}
{"type":"node","id":740000347,"lat":59.533348,"lon":14.272973,"tags":{"name":"Storfors Resecentrum","short_name":"Storfors Resecen","private_code":"347","transport_mode":"rail","stop_place_type":"railStation","weighting":"recommendedInterchange","alt_name":"Storfors Resecentrum","abbreviation":"SF","owner":"17","sellable":"true"},"category":"sweden_all"}
{"type":"node","id":740000348,"lat":57.486551,"lon":15.845828,"tags":{"name":"Hultsfred Resecentrum","short_name":"Hultsfred Resece","private_code":"348","transport_mode":"rail","stop_place_type":"railStation","weighting":"preferredInterchange","alt_name":"Hultsfred Resecentrum","abbreviation":"HF|HFP","owner":"8","sellable":"true"},"category":"sweden_all"}
{"type":"node","id":740000350,"lat":60.545034,"lon":16.286494,"tags":{"name":"Hofors centrum","short_name":"Hofors centrum","private_code":"350","transport_mode":"rail","stop_place_type":"railStation","weighting":"preferredInterchange","alt_name":"Hofors centrum","abbreviation":"Hofors","owner":"21","sellable":"true"},"category":"sweden_all"}
{"type":"node","id":740000351,"lat":57.663999,"lon":15.856676,"tags":{"name":"Vimmerby Resecentrum","short_name":"Vimmerby Resecen","private_code":"351","transport_mode":"rail","stop_place_type":"railStation","weighting":"preferredInterchange","alt_name":"Vimmerby Resecentrum","abbreviation":"VIB","owner":"8","sellable":"true"},"category":"sweden_all"}
{"type":"node","id":740000353,"lat":57.55833,"lon":12.789965,"tags":{"name":"Fritsla station","short_name":"Fritsla station","private_code":"353","transport_mode":"rail","stop_place_type":"railStation","weighting":"recommendedInterchange","alt_name":"Fritsla station","abbreviation":"FRL","owner":"14","sellable":"true"},"category":"sweden_all"}
{"type":"node","id":740000359,"lat":59.696075,"lon":12.469364,"tags":{"name":"Ottebol Stationen","short_name":"Ottebol station","private_code":"359","transport_mode":"rail","stop_place_type":"railStation","weighting":"recommendedInterchange","alt_name":"Ottebol Stationen","abbreviation":"OT","owner":"17","sellable":"true"},"category":"sweden_all"}
{"type":"node","id":740000360,"lat":64.594738,"lon":18.669988,"tags":{"name":"Lycksele Resecentrum","short_name":"Lycksele Resecen","private_code":"360","transport_mode":"rail","stop_place_type":"railStation","weighting":"preferredInterchange","alt_name":"Lycksele Resecentrum","abbreviation":"LY","owner":"24","sellable":"true"},"category":"sweden_all"}
{"type":"node","id":740000361,"lat":59.269566,"lon":15.203002,"tags":{"name":"Södra station","short_name":"Södra station","private_code":"361","transport_mode":"rail","stop_place_type":"railStation","weighting":"interchangeAllowed","alt_name":"Södra station","abbreviation":"ÖB","owner":"18","sellable":"true"},"category":"sweden_all"}
{"type":"node","id":740000363,"lat":57.267641,"lon":12.336733,"tags":{"name":"Veddige station","short_name":"Veddige Station","private_code":"363","transport_mode":"rail","stop_place_type":"railStation","weighting":"recommendedInterchange","alt_name":"Veddige station","abbreviation":"VDI","owner":"13","sellable":"true"},"category":"sweden_all"}
{"type":"node","id":740000365,"lat":58.135932,"lon":15.681358,"tags":{"name":"Rimforsa station","short_name":"Rimforsa station","private_code":"365","transport_mode":"rail","stop_place_type":"railStation","weighting":"preferredInterchange","alt_name":"Rimforsa station","abbreviation":"RF","owner":"5","sellable":"true"},"category":"sweden_all"}
{"type":"node","id":740000366,"lat":56.186854,"lon":14.742953,"tags":{"name":"Mörrum station","short_name":"Mörrum","private_code":"68228","transport_mode":"rail","stop_place_type":"railStation","weighting":"interchangeAllowed","owner":"10","sellable":"true","abbreviation":"MRU"},"category":"sweden_all"}
{"type":"node","id":740000368,"lat":56.230799,"lon":15.115634,"tags":{"name":"Bräkne Hoby","short_name":"Bräkne Hoby","private_code":"368","transport_mode":"rail","stop_place_type":"railStation","weighting":"preferredInterchange","alt_name":"Bräkne Hoby","abbreviation":"BHB","owner":"10","sellable":"true"},"category":"sweden_all"}
{"type":"node","id":740000372,"lat":65.828367,"lon":24.131894,"tags":{"name":"Haparanda Jvstn","short_name":"Haparanda Jvstn","private_code":"372","transport_mode":"rail","stop_place_type":"railStation","weighting":"interchangeAllowed","alt_name":"Haparanda Jvstn","abbreviation":"HP","owner":"25","sellable":"true"},"category":"sweden_all"}
{"type":"node","id":740000378,"lat":62.496616,"lon":16.16778,"tags":{"name":"Fränsta jvg","short_name":"Fränsta jvg","private_code":"378","transport_mode":"rail","stop_place_type":"railStation","weighting":"recommendedInterchange","alt_name":"Fränsta jvg","abbreviation":"FT","owner":"22","sellable":"true"},"category":"sweden_all"}
{"type":"node","id":740000379,"lat":57.837175,"lon":14.811954,"tags":{"name":"Aneby Resecentrum","short_name":"Aneby Resecentru","private_code":"379","transport_mode":"rail","stop_place_type":"railStation","weighting":"preferredInterchange","alt_name":"Aneby Resecentrum","abbreviation":"ANY","owner":"6","sellable":"true"},"category":"sweden_all"}
{"type":"node","id":740000380,"lat":62.419959,"lon":16.598598,"tags":{"name":"Stöde jvg","private_code":"380","transport_mode":"rail","stop_place_type":"railStation","weighting":"interchangeAllowed","owner":"22","sellable":"true","abbreviation":"STD"},"category":"sweden_all"}
{"type":"node","id":740000383,"lat":59.40328,"lon":17.868449,"tags":{"name":"Barkarby station","short_name":"Barkarby station","private_code":"383","transport_mode":"rail","stop_place_type":"railStation","weighting":"recommendedInterchange","alt_name":"Barkarby station","abbreviation":"BKB","owner":"1","sellable":"true"},"category":"sweden_all"}
{"type":"node","id":740000384,"lat":59.705975,"lon":16.221098,"tags":{"name":"Surahammar Jvstn","short_name":"Surahammar Jvstn","private_code":"384","transport_mode":"rail","stop_place_type":"railStation","weighting":"preferredInterchange","alt_name":"Surahammar Jvstn","abbreviation":"SHR","owner":"19","sellable":"true"},"category":"sweden_all"}
{"type":"node","id":740000386,"lat":58.169198,"lon":12.999195,"tags":{"name":"Vedum station","short_name":"Vedum station","private_code":"386","transport_mode":"rail","stop_place_type":"railStation","weighting":"recommendedInterchange","owner":"14","sellable":"true","abbreviation":"VED"},"category":"sweden_all"}
{"type":"node","id":740000388,"lat":56.870061,"lon":14.644831,"tags":{"name":"Gemla station","short_name":"Gemla station","private_code":"388","transport_mode":"rail","stop_place_type":"railStation","weighting":"preferredInterchange","alt_name":"Gemla station","abbreviation":"GM","owner":"7","sellable":"true"},"category":"sweden_all"}
{"type":"node","id":740000392,"lat":59.95709,"lon":17.706563,"tags":{"name":"Storvreta station (Uppsala)","short_name":"Storvreta st.","private_code":"392","transport_mode":"rail","stop_place_type":"railStation","weighting":"preferredInterchange","alt_name":"Storvreta station (Uppsala)","abbreviation":"SRV","owner":"3","sellable":"true"},"category":"sweden_all"}
{"type":"node","id":740000396,"lat":57.634485143795324,"lon":15.417081993610674,"tags":{"name":"Ingatorp","short_name":"Ingatorp","private_code":"59173","transport_mode":"rail","stop_place_type":"railStation","weighting":"interchangeAllowed","alt_name":"Ingatorp","abbreviation":"IGT","owner":"6","sellable":"false"},"category":"sweden_all"}
{"type":"node","id":740000397,"lat":55.506943,"lon":13.233022,"tags":{"name":"Svedala station","short_name":"Svedala stn","private_code":"397","transport_mode":"rail","stop_place_type":"railStation","weighting":"preferredInterchange","alt_name":"Svedala station","abbreviation":"SEA","owner":"12","sellable":"true"},"category":"sweden_all"}
{"type":"node","id":740000402,"lat":57.353245,"lon":12.477171,"tags":{"name":"Horred station (tåg)","short_name":"Horred station","private_code":"34415","transport_mode":"rail","stop_place_type":"railStation","weighting":"recommendedInterchange","alt_name":"Horred station (tåg)","abbreviation":"HRE","owner":"14","sellable":"true"},"category":"sweden_all"}
{"type":"node","id":740000404,"lat":57.896666,"lon":16.41033,"tags":{"name":"Gamleby station","short_name":"Gamleby station","private_code":"404","transport_mode":"rail","stop_place_type":"railStation","weighting":"preferredInterchange","alt_name":"Gamleby station","abbreviation":"GAL","owner":"8","sellable":"true"},"category":"sweden_all"}
{"type":"node","id":740000405,"lat":57.616146,"lon":15.58466,"tags":{"name":"Mariannelund station","short_name":"Mariannelund sta","private_code":"405","transport_mode":"rail","stop_place_type":"railStation","weighting":"recommendedInterchange","alt_name":"Mariannelund station","abbreviation":"MND","owner":"6","sellable":"false"},"category":"sweden_all"}
{"type":"node","id":740000408,"lat":62.035568,"lon":14.352853,"tags":{"name":"Sveg järnvägsstation","short_name":"Sveg järnvägssta","private_code":"408","transport_mode":"rail","stop_place_type":"railStation","weighting":"preferredInterchange","alt_name":"Sveg järnvägsstation","abbreviation":"S","owner":"23","sellable":"true"},"category":"sweden_all"}
{"type":"node","id":740000410,"lat":59.626981,"lon":12.829742,"tags":{"name":"Edane Stationen","short_name":"Edane station","private_code":"410","transport_mode":"rail","stop_place_type":"railStation","weighting":"recommendedInterchange","alt_name":"Edane Stationen","abbreviation":"EN","owner":"17","sellable":"true"},"category":"sweden_all"}
{"type":"node","id":740000414,"lat":67.519357,"lon":20.093703,"tags":{"name":"Fjällåsen","short_name":"Fjällåsen","private_code":"59166","transport_mode":"rail","stop_place_type":"railStation","weighting":"interchangeAllowed","alt_name":"Fjällåsen","abbreviation":"FJÅ","owner":"25","sellable":"true"},"category":"sweden_all"}
{"type":"node","id":740000415,"lat":55.474067,"lon":13.588783,"tags":{"name":"Rydsgård station","short_name":"Rydsgård stn","private_code":"415","transport_mode":"rail","stop_place_type":"railStation","weighting":"recommendedInterchange","alt_name":"Rydsgård station","abbreviation":"RDG","owner":"12","sellable":"true"},"category":"sweden_all"}
{"type":"node","id":740000418,"lat":59.557519,"lon":13.050958,"tags":{"name":"Högboda Stationen","short_name":"Högboda station","private_code":"418","transport_mode":"rail","stop_place_type":"railStation","weighting":"interchangeAllowed","alt_name":"Högboda Stationen","abbreviation":"HBD","owner":"17","sellable":"true"},"category":"sweden_all"}
{"type":"node","id":740000419,"lat":59.780803,"lon":14.519342,"tags":{"name":"Hällefors Resecentrum","short_name":"Hällefors Resece","private_code":"419","transport_mode":"rail","stop_place_type":"railStation","weighting":"recommendedInterchange","owner":"18","sellable":"true","abbreviation":"HLF|HLFN"},"category":"sweden_all"}
{"type":"node","id":740000426,"lat":59.519587,"lon":13.220535,"tags":{"name":"Fagerås Stationen","short_name":"Fagerås station","private_code":"426","transport_mode":"rail","stop_place_type":"railStation","weighting":"preferredInterchange","alt_name":"Fagerås Stationen","abbreviation":"FGÅ","owner":"17","sellable":"true"},"category":"sweden_all"}
{"type":"node","id":740000427,"lat":58.630145,"lon":13.433829,"tags":{"name":"Hällekis","short_name":"Hällekis","private_code":"427","transport_mode":"rail","stop_place_type":"railStation","weighting":"preferredInterchange","owner":"14","sellable":"true","abbreviation":"HLK"},"category":"sweden_all"}
{"type":"node","id":740000428,"lat":65.096408,"lon":17.112874,"tags":{"name":"Storuman Resecentrum","short_name":"Storuman Resecen","private_code":"428","transport_mode":"rail","stop_place_type":"railStation","weighting":"preferredInterchange","alt_name":"Storuman Resecentrum","abbreviation":"SUM","owner":"24","sellable":"true"},"category":"sweden_all"}
{"type":"node","id":740000432,"lat":56.342112,"lon":13.663264,"tags":{"name":"Vittsjö station","short_name":"Vittsjö stn","private_code":"432","transport_mode":"rail","stop_place_type":"railStation","weighting":"recommendedInterchange","alt_name":"Vittsjö station","abbreviation":"VSJ","owner":"12","sellable":"true"},"category":"sweden_all"}
{"type":"node","id":740000433,"lat":60.015741,"lon":13.13759,"tags":{"name":"Lysvik, Stationen","short_name":"Lysvik station","private_code":"433","transport_mode":"rail","stop_place_type":"railStation","weighting":"recommendedInterchange","alt_name":"Lysvik, Stationen","abbreviation":"LYV","owner":"17","sellable":"true"},"category":"sweden_all"}
{"type":"node","id":740000434,"lat":64.115788,"lon":16.201811,"tags":{"name":"Hoting järnvägsstation","short_name":"Hoting","private_code":"434","transport_mode":"rail","stop_place_type":"railStation","weighting":"recommendedInterchange","alt_name":"Hoting järnvägsstation","abbreviation":"HTG","owner":"23","sellable":"true"},"category":"sweden_all"}
{"type":"node","id":740000438,"lat":60.080146,"lon":17.738008,"tags":{"name":"Skyttorp station (Uppsala)","short_name":"Skyttorp station","private_code":"438","transport_mode":"rail","stop_place_type":"railStation","weighting":"preferredInterchange","alt_name":"Skyttorp station (Uppsala)","abbreviation":"SYT","owner":"3","sellable":"true"},"category":"sweden_all"}
{"type":"node","id":740000439,"lat":57.163411,"lon":13.833072,"tags":{"name":"Forsheda station","short_name":"Forsheda station","private_code":"439","transport_mode":"rail","stop_place_type":"railStation","weighting":"interchangeAllowed","alt_name":"Forsheda station","abbreviation":"FOD","owner":"6","sellable":"true"},"category":"sweden_all"}
{"type":"node","id":740000442,"lat":58.379044,"lon":12.97034,"tags":{"name":"Järpås station","short_name":"Järpås station","private_code":"442","transport_mode":"rail","stop_place_type":"railStation","weighting":"interchangeAllowed","alt_name":"Järpås station","abbreviation":"JPS","owner":"14","sellable":"true"},"category":"sweden_all"}
{"type":"node","id":740000443,"lat":62.924213,"lon":14.522241,"tags":{"name":"Hackås Station","private_code":"443","transport_mode":"rail","stop_place_type":"railStation","weighting":"interchangeAllowed","owner":"23","sellable":"true","abbreviation":"HKS"},"category":"sweden_all"}
{"type":"node","id":740000444,"lat":62.767355,"lon":14.436517,"tags":{"name":"Svenstavik station","private_code":"444","transport_mode":"rail","stop_place_type":"railStation","weighting":"interchangeAllowed","owner":"23","sellable":"false","abbreviation":"SVK"},"category":"sweden_all"}
{"type":"node","id":740000447,"lat":66.607086,"lon":19.84001,"tags":{"name":"Jokkmokk station","private_code":"447","transport_mode":"rail","stop_place_type":"railStation","weighting":"interchangeAllowed","owner":"25","sellable":"true","abbreviation":"JK"},"category":"sweden_all"}
{"type":"node","id":740000448,"lat":63.315254,"lon":13.086994,"tags":{"name":"Edsåsdalen","short_name":"Edsåsdalen","private_code":"448","transport_mode":"rail","stop_place_type":"railStation","weighting":"interchangeAllowed","alt_name":"Edsåsdalen","abbreviation":"Edsåsd","owner":"23","sellable":"true"},"category":"sweden_all"}
{"type":"node","id":740000451,"lat":64.622447,"lon":16.65334,"tags":{"name":"Vilhelmina Busstation","short_name":"Vilhelmina Busst","private_code":"451","transport_mode":"rail","stop_place_type":"railStation","weighting":"preferredInterchange","alt_name":"Vilhelmina Busstation","abbreviation":"VMA","owner":"24","sellable":"true"},"category":"sweden_all"}
{"type":"node","id":740000456,"lat":57.944145,"lon":11.850757,"tags":{"name":"Kode station","short_name":"Kode station","private_code":"456","transport_mode":"rail","stop_place_type":"railStation","weighting":"preferredInterchange","alt_name":"Kode station","abbreviation":"KDE","owner":"14","sellable":"true"},"category":"sweden_all"}
{"type":"node","id":740000458,"lat":60.025022,"lon":17.731129,"tags":{"name":"Vattholma station (Uppsala)","short_name":"Vattholma st.","private_code":"458","transport_mode":"rail","stop_place_type":"railStation","weighting":"preferredInterchange","alt_name":"Vattholma station (Uppsala)","abbreviation":"VHA","owner":"3","sellable":"true"},"category":"sweden_all"}
{"type":"node","id":740000465,"lat":57.176114,"lon":13.737852,"tags":{"name":"Bredaryd station","short_name":"Bredaryd station","private_code":"59151","transport_mode":"rail","stop_place_type":"railStation","weighting":"preferredInterchange","alt_name":"Bredaryd station","abbreviation":"BDY","owner":"6","sellable":"true"},"category":"sweden_all"}
{"type":"node","id":740000466,"lat":58.644305,"lon":13.702099,"tags":{"name":"Lugnås station","short_name":"Lugnås station","private_code":"466","transport_mode":"rail","stop_place_type":"railStation","weighting":"preferredInterchange","owner":"14","sellable":"true","abbreviation":"LNÅ"},